Restaurant Restaurant ID,Restaurant Restaurant Name,Address,Post Code,Full Address,Latitude,Longitude,Weekly orders
89931,Five Guys - Castellana Azca,"Paseo de la Castellana, 75",28020,"Paseo de la Castellana, 75 28020 ",40.4476083,-3.6933262,611
183722,Five Guys - Serrano,"Calle Serrano, 45",28001,"Calle Serrano, 45 28001 ",40.4289468,-3.6875354,462
73119,"Carl's Junior - Gran Vía, 45","Gran Vía, 45",28013,"Gran Vía, 45 28013 ",40.4209296,-3.707325,374
69463,Sushi MIX - Galileo,Calle Galileo 36,28015,Calle Galileo 36 28015 ,40.4332924,-3.7101998,321
49914,Five Guys - Gran Vía,Calle Gran Vía 44,28013,Calle Gran Vía 44 28013 ,40.4205576,-3.7054769,335
94951,Five Guys - Plaza Mayor,"Calle de Toledo, 19",28005,"Calle de Toledo, 19 28005 ",40.4141993,-3.7073497,292
80681,Carl's Junior - Plenilunio -,"Calle Aracne, 3",28022,"Calle Aracne, 3 28022 ",40.4469408,-3.5875084,191
84057,Taco Bell - La Gavia,"Calle Adolfo Bioy Casares, 2",28051,"Calle Adolfo Bioy Casares, 2 28051 ",40.3689253,-3.5991676,210
208031,Sushi Mix - Corazón de María,"Calle corazon de maria, 33,",28002,"Calle corazon de maria, 33, 28002 ",40.44447,-3.66744,211
63302,Five Guys - Plaza Río 2,Calle de Antonio López 109,28026,Calle de Antonio López 109 28026 ,40.3908576,-3.7014177,226
41589,Taco Bell - Tres Aguas,"Av. de América, 7-9",28922,"Av. de América, 7-9 28922 ",40.3584463,-3.8313617,208
6836,José Luis - Serrano,"Calle de Serrano, 89",28006,"Calle de Serrano, 89 28006 ",40.4369796,-3.6866103,248
62468,Taco Bell - Parquesur,"Av. de Gran Bretaña, s/n",28916,"Av. de Gran Bretaña, s/n 28916 ",40.3407111,-3.7428726,191
245371,MX Roberto Ruiz,"Maria de Guzmán, 34",28003,"Maria de Guzmán, 34 28003 ",40.4439933,-3.69826,222
57206,Five Guys - Parquesur,Av. de Gran Bretaña,28916,Av. de Gran Bretaña 28916 ,40.3407111,-3.7428726,152
130204,Cristina Oria - Core,Calle de José Ortega y Gasset 29,28006,Calle de José Ortega y Gasset 29 28006 ,40.4306155,-3.6830042,210
95655,Five Guys - La Gavia,"Calle Adolfo Bioy Casares, 2",28051,"Calle Adolfo Bioy Casares, 2 28051 ",40.3689253,-3.5991676,178
70123,Lateral - Madrid,Plaza de la República Argentina 7,28002,Plaza de la República Argentina 7 28002 ,40.44555,-3.68499,163
137481,Crudo Pokes & Salads,"C/ Fernández de la Hoz, 48",28010,"C/ Fernández de la Hoz, 48 28010 ",40.4360118,-3.6945366,156
72285,Goiko Grill - Embajadores,Calle Embajadores 100,28012,Calle Embajadores 100 28012 ,40.4022656,-3.7006972,134
16825,Mama Campo,"Calle Raimundo Lulio, 2",28010,"Calle Raimundo Lulio, 2 28010 ",40.4324159,-3.7003489,145
199589,Goiko Grill - Alcorcón,"Av. de la Libertad, 2,",28924,"Av. de la Libertad, 2, 28924 ",40.3460152,-3.8107363,123
122855,Taco Bell - Atocha,Plaza del Emperador Carlos V 11,28012,Plaza del Emperador Carlos V 11 28012 ,40.409005,-3.6925688,131
201300,Taco Bell - Las Mercedes,"Calle Campezo 7, Polígonos Industrial las Mercedes,",28022,"Calle Campezo 7, Polígonos Industrial las Mercedes, 28022 ",40.445573,-3.5817343,132
145169,Rawcoco - Almagro,"Calle de Fernando el Santo, 4",28010,"Calle de Fernando el Santo, 4 28010 ",40.4281795,-3.6947305,139
22890,Pizzaiolo,"C/ Hortaleza, 84",28004,"C/ Hortaleza, 84 28004 ",40.4237535,-3.6984677,159
187178,McDonald's - Arroyomolinos Xanadú,"Junto a Bricor, Calle Puerto de Somosierra, s/n,, Madrid",28939,"Junto a Bricor, Calle Puerto de Somosierra, s/n,, Madrid 28939 ",40.29627,-3.936029,129
79398,Taco Bell - Islazul,"Calle Calderilla, 1",28054,"Calle Calderilla, 1 28054 ",40.3637278,-3.7374791,141
220815,Goiko - Getafe,"Calle Ramon y Cajal, 8,",28902,"Calle Ramon y Cajal, 8, 28902 ",40.3096945,-3.730379,95
44912,Goiko Grill - Pozuelo,"Av. de la Comunidad de Madrid, 3",28224,"Av. de la Comunidad de Madrid, 3 28224 ",40.4387741,-3.7935612,102
239984,McDonald's - Jarama,"Ctra. de Burgos (N-I, Km.29)",28700,"Ctra. de Burgos (N-I, Km.29) 28700 ",40.6346934,-3.5918529,125
184103,Taco Bell - Xanadú,"Calle Puerto de Navacerrada, km 23, 5",28939,"Calle Puerto de Navacerrada, km 23, 5 28939 ",40.2996058,-3.9261572,108
257317,Sushita Café,"Calle Pedro Muñoz Seca, 4",28014,"Calle Pedro Muñoz Seca, 4 28014 ",40.420261,-3.6904742,113
117620,Makkila Serrano 110,Calle Serrano 110,28006,Calle Serrano 110 28006 ,40.4353049,-3.6861546,114
170029,Tasty Poké - Boadilla del Monte,"Av. Siglo XXI, 8, LOCAL 4",28660,"Av. Siglo XXI, 8, LOCAL 4 28660 ",40.4054412,-3.8948169,105
166869,Pizza Hut - Antonio Pérez,"Calle Antonio Pérez, 26",28002,"Calle Antonio Pérez, 26 28002 ",40.4428716,-3.6819145,95
108277,Lopez y Lopez - Editions SOR MTET,Calle Sorgo 17,28029,Calle Sorgo 17 28029 ,40.4663771,-3.7068448,119
224859,KFC LAS ROZAS HERON CITY - Activo,"Calle Camilo Jose Cela, 2,",28232,"Calle Camilo Jose Cela, 2, 28232 ",40.51517,-3.89765,78
26143,Greek and Shop - Malasaña,"Calle Corredera Alta de San Pablo, 9",28004,"Calle Corredera Alta de San Pablo, 9 28004 ",40.4248706,-3.7020726,102
105269,Goiko Grill - Infanta Mercedes,"Calle de la Infanta Mercedes, 105",28020,"Calle de la Infanta Mercedes, 105 28020 ",40.4637587,-3.6935859,94
6979,La Pagoda,"Calle Félix Boix, 7",28036,"Calle Félix Boix, 7 28036 ",40.463488,-3.687409,99
167741,Olemole - Génova,"Calle de Génova, 1",28010,"Calle de Génova, 1 28010 ",40.4275535,-3.6950795,85
38295,Taco Bell - Vaguada,"Av. de Monforte de Lemos, 36",28029,"Av. de Monforte de Lemos, 36 28029 ",40.4798322,-3.707023,101
74083,Mission Saigon - Huerta,"Calle lope de vega 16, Madrid",28014,"Calle lope de vega 16, Madrid 28014 ",40.413677,-3.697799,81
228448,Goiko - Islazul,"Calle Calderilla, 1,",28054,"Calle Calderilla, 1, 28054 ",40.3637278,-3.7374791,90
236148,Kirei by Kabuki,"Calle de San Agustín, 3",28014,"Calle de San Agustín, 3 28014 ",40.4151702,-3.6967946,89
239975,McDonald's - Algete,"Calle del Abedul M-100, Km 0.400,",28709,"Calle del Abedul M-100, Km 0.400, 28709 ",40.5828756,-3.5762607,87
180482,Cristina Oria - Editions SOR,Calle Sorgo 17,28039,Calle Sorgo 17 28039 ,40.4663771,-3.7068448,105
209226,Nugu Burger,"Calle de Covarrubias, 38,",28010,"Calle de Covarrubias, 38, 28010 ",40.4313117,-3.6979651,126
242365,Pastelería Mallorca - Aviador Zorita,"Calle del Aviador Zorita, 39, 28020 Madrid",28020,"Calle del Aviador Zorita, 39, 28020 Madrid 28020 ",40.450748,-3.6985002,94
224955,KFC MADRID C ARENAL - Activo,"Calle del Arenal, 19",28013,"Calle del Arenal, 19 28013 ",40.4175537,-3.708034,84
13793,Panela & Co,"Calle López De Hoyos, 10",28006,"Calle López De Hoyos, 10 28006 ",40.4369143,-3.6872169,95
53980,Taco Bell - Plaza Norte 2,"Plaza del Comercio, 11-12",28703,"Plaza del Comercio, 11-12 28703 ",40.5405918,-3.6132322,83
28297,Pizzeria Vesuvio,"Calle de Hortaleza, 4",28004,"Calle de Hortaleza, 4 28004 ",40.4206383,-3.7007761,85
151358,Spice MAD - Editions ATR,Calle Andrés Torrejón 17,28014,Calle Andrés Torrejón 17 28014 ,40.4078707,-3.6825089,68
185801,Five Guys - Xanadú,"Calle Puerto de Navacerrada, km 23, 5,",28939,"Calle Puerto de Navacerrada, km 23, 5, 28939 ",40.2996058,-3.9261572,92
69163,Wok To Walk - Hortaleza,Calle de Hortaleza 7,28004,Calle de Hortaleza 7 28004 ,40.4206802,-3.7010173,74
117180,Goiko Grill - Silvano,"Calle Silvano, 77",28043,"Calle Silvano, 77 28043 ",40.4632213,-3.6370595,94
185896,Taco Bell - Concha Espina,"Av. de Concha Espina, 6,",28036,"Av. de Concha Espina, 6, 28036 ",40.4517894,-3.688889,108
242384,Pastelería Mallorca - Génova,"Calle de Génova, 12, 28004 Madrid",28004,"Calle de Génova, 12, 28004 Madrid 28004 ",40.4268206,-3.6945098,101
258819,McDonald's - Boadilla del Monte,"Calle Santillana del Mar nº 2,,",28660,"Calle Santillana del Mar nº 2,, 28660 ",40.4058477,-3.8816075,81
73527,GUILTY - COOKIE SHOP,"Fernández de la Hoz 48, Madrid",28010,"Fernández de la Hoz 48, Madrid 28010 ",40.4360118,-3.6945366,89
134257,Greek and Shop - Editions ATR,Calle Andrés Torrejón 17,28014,Calle Andrés Torrejón 17 28014 ,40.4078707,-3.6825089,74
151099,Goiko Grill - C.C. Gran Plaza 2,Calle de los Químicos 2 (C.C. Gran Plaza 2),28222,Calle de los Químicos 2 (C.C. Gran Plaza 2) 28222 ,40.4912269,-3.8986152,66
231791,KFC MADRID C ALCALA 468 - Activo,"C/ Alcalá, 468,",28027,"C/ Alcalá, 468, 28027 ",40.4390829,-3.6330563,67
67247,Taco Bell - Plaza Castilla,"Paseo de la Castellana, 191A",28029,"Paseo de la Castellana, 191A 28029 ",40.4674408,-3.6896352,55
26515,Goiko Grill - Peñalver,"Calle del Conde de Peñalver, 41",28006,"Calle del Conde de Peñalver, 41 28006 ",40.428931,-3.6755339,61
177736,La Cocina de Carrefour - Hortaleza,C/Arequipa s/n,28043,C/Arequipa s/n 28043 ,40.4689814,-3.6379077,63
249478,McDonald's - Fuencarral Glorieta,"C/ Fuencarral, nº 103",28004,"C/ Fuencarral, nº 103 28004 ",40.4282939,-3.7022263,79
231846,Hot Now,"Calle de Barbieri, 14",28004,"Calle de Barbieri, 14 28004 ",40.4213739,-3.6979651,51
224968,KFC GETAFE ESTADIO COLISEUM - Activo,"Avd. Teresa de Calcuta, s/n,",28903,"Avd. Teresa de Calcuta, s/n, 28903 ",40.3243202,-3.7146721,70
247685,Verdelivery by Rodrigo de la Calle,C/Alenza 12,28003,C/Alenza 12 28003 ,40.4439512,-3.7004227,90
17666,Maki - Chamberi,"Calle de Fernández de la Hoz, 35",28010,"Calle de Fernández de la Hoz, 35 28010 ",40.4362351,-3.6950122,64
169642,Poke Bros - Fernandez de la Hoz,"Calle de Fernández de la Hoz, 48",28010,"Calle de Fernández de la Hoz, 48 28010 ",40.4360118,-3.6945366,60
108326,Gecko Poké,"Calle de Fernández de los Ríos, 40",28015,"Calle de Fernández de los Ríos, 40 28015 ",40.4351757,-3.7083646,73
147364,Taco Bell - C.C. Nassica,"Av. Río Guadalquivir, 13 - Getafe",28906,"Av. Río Guadalquivir, 13 - Getafe 28906 ",40.2726713,-3.6974675,69
203856,Goiko Grill - Boadilla,"Av. Siglo XXI, 13,",28660,"Av. Siglo XXI, 13, 28660 ",40.4068109,-3.9008762,65
245404,McDonald's - Francisco Silvela,"C/ Francisco Silvela, 42,",28028,"C/ Francisco Silvela, 42, 28028 ",40.4333969,-3.6729631,79
101453,Out Fry - Huerta,Calle Lope de Vega 16,28014,Calle Lope de Vega 16 28014 ,40.413677,-3.697799,78
154455,Paleo&Keto - Madrid,Calle Serrano 110,28006,Calle Serrano 110 28006 ,40.4353049,-3.6861546,68
245385,McDonald's - Las Tablas Repsol,"C/ Abetal, nº 8,",28050,"C/ Abetal, nº 8, 28050 ",40.5023532,-3.6631161,76
8064,Magasand - Columela,"Calle de Columela, 4",28001,"Calle de Columela, 4 28001 ",40.4209791,-3.6878982,70
52858,Taco Bell - Equinoccio,"Calle Fresa, 2",28222,"Calle Fresa, 2 28222 ",40.4538858,-3.8736436,100
58868,Lopez y Lopez - Lavapiés,"Calle de Cabestreros, 4",28012,"Calle de Cabestreros, 4 28012 ",40.4094889,-3.7042763,72
106708,Tasty Poke - Pozuelo,"Avenida de Europa, 22",28224,"Avenida de Europa, 22 28224 ",40.4393731,-3.7898284,59
79681,Goiko Grill - Arturo Soria,Calle Arturo Soria 126,28043,Calle Arturo Soria 126 28043 ,40.4499968,-3.6507593,62
85043,Tasty Poke - San Bernardo,"Calle San Bernardo, 119",28015,"Calle San Bernardo, 119 28015 ",40.4329338,-3.7048276,82
13959,Burnout - Fuencarral,"Calle de Fuencarral, 148",28010,"Calle de Fuencarral, 148 28010 ",40.4324772,-3.70368,80
188208,Tasty Poké - Las Tablas,Calle de Puente la Reina s/n,28050,Calle de Puente la Reina s/n 28050 ,40.5021166,-3.6742316,60
263593,Tasty Poke - Núñez de Balboa,"Calle de Núñez de Balboa, 56,",28001,"Calle de Núñez de Balboa, 56, 28001 ",40.4285843,-3.6823934,85
102606,Manolo Bakes - Conde de Peñalver,"Conde de Peñalver, 68",28006,"Conde de Peñalver, 68 28006 ",40.4315721,-3.6747826,80
203199,Mad Mad Vegan,"CALLE PELAYO 19,",28004,"CALLE PELAYO 19, 28004 ",40.4226984,-3.6986085,62
50213,Oven - Atocha,"Calle de Atocha, 114, 28012, Madrid",28012,"Calle de Atocha, 114, 28012, Madrid 28012 ",40.4094376,-3.6933107,62
82306,Taco Bell - BravoMurillo,Calle de bravo murillo 108,28020,Calle de bravo murillo 108 28020 ,40.4480253,-3.7036305,38
263748,Five Guys - Castellana Azca MHOR,"Paseo de la Castellana, 75,",28020,"Paseo de la Castellana, 75, 28020 ",40.4476083,-3.6933262,79
6111,Oven - Fuencarral,"Calle Fuencarral, 74",28004,"Calle Fuencarral, 74 28004 ",40.4252465,-3.7005614,64
97806,Taco Bell - Sambil,Calle de Mondragón (C.C. SAMBIL),28917,Calle de Mondragón (C.C. SAMBIL) 28917 ,40.3594243,-3.7766788,66
224825,KFC MADRID C BRAVO MURILLO 168 - Activo,"Calle de Bravo Murillo, 168",28020,"Calle de Bravo Murillo, 168 28020 ",40.4533167,-3.7028222,67
249627,Taco Bell - Montera,"Calle de la Montera, 45,",28013,"Calle de la Montera, 45, 28013 ",40.4194612,-3.7019879,65
23982,Vips - Ribera Curtidores,"Calle Ribera de Curtidores, 43",28005,"Calle Ribera de Curtidores, 43 28005 ",40.4052576,-3.7066741,53
137427,Only Sushi - Editions ATR,Calle Andrés Torrejón 17,28014,Calle Andrés Torrejón 17 28014 ,40.4078707,-3.6825089,69
166874,Pizza Hut - Francos Rodríguez,Calle de Francos Rodríguez 8,28003,Calle de Francos Rodríguez 8 28003 ,40.4547848,-3.703356,45
8323,Café de París - Conde de Aranda,"Calle Conde de Aranda, 11",28001,"Calle Conde de Aranda, 11 28001 ",40.4218148,-3.6867156,68
16817,A'Fenestella,"Calle de Torquemada, 25",28043,"Calle de Torquemada, 25 28043 ",40.4683799,-3.6385887,48
71898,Ono Loa Poké,Avenida Donostiarra 3,28027,Avenida Donostiarra 3 28027 ,40.435237,-3.6590517,48
245874,McDonald's - Bravo Murillo,"C/ Bravo Murillo, 274,",28020,"C/ Bravo Murillo, 274, 28020 ",40.4608243,-3.6981077,59
250360,McDonald's - Carralero II,C/ La Fresa,28220,C/ La Fresa 28220 ,40.4543525,-3.8725118,54
77774,Goiko Grill - Heron Diversia,Avenida Bruselas 21,28108,Avenida Bruselas 21 28108 ,40.5300823,-3.6396724,59
245859,McDonald's - Palacio de Hielo,"Centro Comercial Palacio de Hielo | C/ Silvano nº77, Local-A13,",28043,"Centro Comercial Palacio de Hielo | C/ Silvano nº77, Local-A13, 28043 ",40.4631976,-3.6373448,61
9208,Tuk-Tuk - Gral. Perón,"Av. del General Perón, 16",28004,"Av. del General Perón, 16 28004 ",40.4522305,-3.6968825,53
213518,Goiko Grill - Niza,"Av. de Niza, 42,",28022,"Av. de Niza, 42, 28022 ",40.4341813,-3.6071403,48
251468,KFC MADRID CC LA GAVIA - Activo,"Centro Comercial La Gavia, Calle Alto del Retiro, 52,",28051,"Centro Comercial La Gavia, Calle Alto del Retiro, 52, 28051 ",40.3690139,-3.5990357,50
17667,Maki - Las Tablas,"Calle Frómista, 5",28050,"Calle Frómista, 5 28050 ",40.5094465,-3.6772985,37
41648,Goiko Grill - Las Tablas,"Glorieta Monte del Gozo, 25",28050,"Glorieta Monte del Gozo, 25 28050 ",40.5092053,-3.6682657,57
137443,My F*cking Poke - Editions ATR,Calle Andrés Torrejón 17,28014,Calle Andrés Torrejón 17 28014 ,40.4078707,-3.6825089,54
222483,Julieta Lemon,García de Paredes 33,28010,García de Paredes 33 28010 ,40.4369212,-3.6984209,47
225423,Tasty Poke - Félix Boix,"Calle Félix Boix, 1,",28036,"Calle Félix Boix, 1, 28036 ",40.4635114,-3.6887658,50
245396,McDonald's - Goya,"C/ Goya, nº 70,",28009,"C/ Goya, nº 70, 28009 ",40.4161588,-3.680072,61
245155,Bacira,"Calle del Castillo, 16,16",28010,"Calle del Castillo, 16,16 28010 ",40.4337539,-3.6990363,49
248577,Lateral - Arturo Soria,"Calle de Arturo Soria, 126, 128,",28043,"Calle de Arturo Soria, 126, 128, 28043 ",40.4496162,-3.6508583,58
224850,KFC MOSTOLES CAM OBISPO 6 - Activo,"Camino del Obispo, 6,",28935,"Camino del Obispo, 6, 28935 ",40.3317185,-3.8854878,58
250751,Restaurante La Penela Velázquez,"Calle de Velázquez, 96,",28006,"Calle de Velázquez, 96, 28006 ",40.4336565,-3.6823702,54
254993,Johny Rockets,"FUENCARRAL, 117,",28010,"FUENCARRAL, 117, 28010 ",40.4299113,-3.7029497,51
36294,Xanacuk,"Calle de Augusto Figueroa, 13",28004,"Calle de Augusto Figueroa, 13 28004 ",40.4228949,-3.6997267,52
53509,Taco Bell - Heron City,"Calle Camilo Jose Cela, 2",28232,"Calle Camilo Jose Cela, 2 28232 ",40.51517,-3.89765,27
108097,PORNEAT by I want #foodporn (I Want #BurgerPorn),Avenida de Daroca 47,28017,Avenida de Daroca 47 28017 ,40.4294983,-3.6523631,38
156436,Makan Saj Wraps - Calle de Velázquez,"Calle de Velázquez, 118",28006,"Calle de Velázquez, 118 28006 ",40.4363428,-3.6830066,56
247054,Juanchi's Burger - Conde Peñalver,"Calle del Conde de Peñalver, 60,",28006,"Calle del Conde de Peñalver, 60, 28006 ",40.4308566,-3.6747826,46
251512,80 Grados Las Tablas,"Calle Mirallos, 4",28050,"Calle Mirallos, 4 28050 ",40.5086201,-3.6670853,57
60364,Tasty Poke - Orense,Orense 21,28020,Orense 21 28020 ,40.450542,-3.6953589,47
246529,Ronda 14,"Calle del Gral Oraá, 25",28006,"Calle del Gral Oraá, 25 28006 ",40.4363383,-3.6848491,40
17866,Lemongrass - Montera,"Calle de la Montera, 36",28013,"Calle de la Montera, 36 28013 ",40.4190659,-3.7017704,55
23761,Irsushi - Chamberí,"Calle de Ríos Rosas, 51",28003,"Calle de Ríos Rosas, 51 28003 ",40.44191,-3.6966808,53
26514,Goiko Grill - Alcocer,"Av. de Alberto de Alcocer, 42",28016,"Av. de Alberto de Alcocer, 42 28016 ",40.4583585,-3.6809898,44
61696,Arepa Olé - Chueca,"Calle Pelayo, 2",28004,"Calle Pelayo, 2 28004 ",40.421756,-3.6991428,42
136429,Don Sushi - Boadilla,Av. Siglo XXI 8 - Boadilla del Monte,28660,Av. Siglo XXI 8 - Boadilla del Monte 28660 ,40.4060714,-3.8968571,33
141398,Taco Bell - Torrejón,"AV. De La Constitución, 110 Torrejón de Ardoz (Madrid)",28850,"AV. De La Constitución, 110 Torrejón de Ardoz (Madrid) 28850 ",40.4584649,-3.4657389,58
241616,Maison Kayser,"Calle de Velázquez, 126,",28006,"Calle de Velázquez, 126, 28006 ",40.4369956,-3.6829321,41
247277,McDonald's - Alcobendas El Juncal,"Avenida de Rafael Nadal, 3,",28108,"Avenida de Rafael Nadal, 3, 28108 ",40.5380968,-3.6232446,32
250922,McDonald's - Getafe Hospital,Calle Einstein 1,28905,Calle Einstein 1 28905 ,40.3163426,-3.7434421,48
24164,Oven - Las Tablas,"Calle San Juan de Ortega, 36",28050,"Calle San Juan de Ortega, 36 28050 ",40.504576,-3.6749106,45
38148,Pizza Napoli - Chamberí,"Calle Jordán, 12",28010,"Calle Jordán, 12 28010 ",40.4328652,-3.7026416,52
59819,Don Sushi - Móstoles,"Avenida de Portugal , 46",28933,"Avenida de Portugal , 46 28933 ",40.3266,-3.8683,50
108267,Bastard Burger - Editions SOR,Calle Sorgo 17,28029,Calle Sorgo 17 28029 ,40.4663771,-3.7068448,48
115083,Carl's Junior - Parque Sur,"Centro Comercial Parque Sur, Av. de Gran Bretaña, S/N,",28916,"Centro Comercial Parque Sur, Av. de Gran Bretaña, S/N, 28916 ",40.3401454,-3.7331842,31
231843,KFC LEGANES CC PARQUESUR - Activo,kfc CC Parque Sur. Paseo de la Isla. Local 17-21,28912,kfc CC Parque Sur. Paseo de la Isla. Local 17-21 28912 ,40.3401454,-3.7331842,43
249581,Goiko - San German,Calle San Germán 50,28020,Calle San Germán 50 28020 ,40.45711,-3.6991339,51
26512,Goiko Grill - Prado,"Calle del Prado, 15",28014,"Calle del Prado, 15 28014 ",40.4149738,-3.698539,46
38145,La Befana,Avenida Europoa 11,28224,Avenida Europoa 11 28224 ,40.4382078,-3.7943604,35
77778,Goiko Grill - Ibiza,"Ibiza, 41",28009,"Ibiza, 41 28009 ",40.4184039,-3.6732177,50
206889,Flax & Kale Street Madrid,"Paseo de la Castellana, 89",28046,"Paseo de la Castellana, 89 28046 ",40.4499767,-3.6916087,54
249702,McDonald's - Pozuelo Somosaguas,"Carretera de Húmera, 96",28224,"Carretera de Húmera, 96 28224 ",40.4311653,-3.7949733,50
250380,McDonald's - Carabanchel,"C/ La Oca, Glorieta Ejército, 105,",28025,"C/ La Oca, Glorieta Ejército, 105, 28025 ",40.387852,-3.7444157,44
253031,McDonald's - Villaviciosa de Odon,"Av. Quitapesares, 3,",28670,"Av. Quitapesares, 3, 28670 ",40.3499865,-3.9009359,68
61994,Sushi Shop - Genova new,"Calle de Génova, 23",28004,"Calle de Génova, 23 28004 ",40.4263673,-3.6926968,52
92359,Tasty Poke - Las Rozas,"Calle Belgrado, 31",28232,"Calle Belgrado, 31 28232 ",40.5045687,-3.890516,52
116472,Pizza Napoli - Pradillo,Calle de Pradillo 14,28002,Calle de Pradillo 14 28002 ,40.4484839,-3.6744509,37
144385,Tandoori Masala Indian Cuisine,"Carr. de Fuencarral, 44 - Alcobendas",28108,"Carr. de Fuencarral, 44 - Alcobendas 28108 ",40.52496,-3.65578,44
147584,Carl's Junior - Diversia,Calle Bruselas 21,28108,Calle Bruselas 21 28108 ,40.5300823,-3.6396724,38
180720,Papa John's Galileo,"Calle Galileo, 15",28015,"Calle Galileo, 15 28015 ",40.431523,-3.7106308,36
233402,Tienda 24 horas Maldonado,"Calle de Maldonado, 51",28006,"Calle de Maldonado, 51 28006 ",40.4338211,-3.6790536,41
262537,Bastard Burger - Editions ATR,"Andrés de Torrejón 17,",28014,"Andrés de Torrejón 17, 28014 ",40.4078707,-3.6825089,24
23970,Vips - Quevedo,"Gta. Quevedo, 9",28015,"Gta. Quevedo, 9 28015 ",40.4334094,-3.7038213,32
35597,Vips - Alcobendas,"Av. de España, 17",28100,"Av. de España, 17 28100 ",40.5481449,-3.6406227,33
108272,Street Burrito - Editions SOR,Calle Sorgo 17,28029,Calle Sorgo 17 28029 ,40.4663771,-3.7068448,41
245412,McDonald's - San Blas,"Av. de Guadalajara, 2,Centro Comercial Las Rosas",28032,"Av. de Guadalajara, 2,Centro Comercial Las Rosas 28032 ",40.4187285,-3.6209721,44
250369,McDonald's - Hortaleza,"Av. de los Andes, 46",28042,"Av. de los Andes, 46 28042 ",40.455486,-3.6186405,66
251016,McDonald's - Acacias,"Paseo de las Acacias, 22A,",28005,"Paseo de las Acacias, 22A, 28005 ",40.4040086,-3.7070359,46
62607,Pure Cuisine Tres Aguas,"Av. de América, 7-9",28922,"Av. de América, 7-9 28922 ",40.3584463,-3.8313617,37
135480,Café de París - Félix Boix vacaciones,Calle Félix Boix 8,28036,Calle Félix Boix 8 28036 ,40.4632104,-3.6879923,37
141417,Beykebap - Las Rosas,"Avenida Guadalajara, 2 (Centro Comercial Las Rosas)",28032,"Avenida Guadalajara, 2 (Centro Comercial Las Rosas) 28032 ",40.4187285,-3.6209721,44
168136,Sumo - Juan Bravo,Calle Juan Bravo 66,28006,Calle Juan Bravo 66 28006 ,40.4321568,-3.6731312,29
171011,Starbucks - La Gavia,"Calle Adolfo Bioy Casares, 2",28051,"Calle Adolfo Bioy Casares, 2 28051 ",40.3689253,-3.5991676,37
246993,McDonald's - Atocha,"C/ Atocha, 127 | Hotel Nacional,",28012,"C/ Atocha, 127 | Hotel Nacional, 28012 ",40.4106154,-3.6952627,43
35185,Pizza Napoli,Calle Antonio Arias 4,28009,Calle Antonio Arias 4 28009 ,40.4175952,-3.6716035,45
63184,Llaollao - Calle Alcalá,"Calle de Alcala, 347",28027,"Calle de Alcala, 347 28027 ",40.4339846,-3.6465949,27
67230,Ramen Shifu - Calle Ayala,"Calle Ayala, 65",28001,"Calle Ayala, 65 28001 ",40.4275296,-3.6768097,46
99294,Waiwai Poke,Calle de Bretón de los Herreros 19,28003,Calle de Bretón de los Herreros 19 28003 ,40.4396808,-3.699084,35
102524,Manolo Bakes - Santa Bárbara,"Plaza de Sta. Barbara, 4",28004,"Plaza de Sta. Barbara, 4 28004 ",40.4275849,-3.6964193,54
224820,KFC MADRID C FCO SILVELA 65 - Activo,"Calle de Francisco Silvela, 65,",28028,"Calle de Francisco Silvela, 65, 28028 ",40.4351171,-3.6753574,45
232018,KFC MADRID CC LA VAGUADA - Activo,"Avd Monforte de Lemos, 36",28029,"Avd Monforte de Lemos, 36 28029 ",40.4798322,-3.707023,36
10807,Tuk-Tuk - Chueca,"Calle del Barquillo, 26",28004,"Calle del Barquillo, 26 28004 ",40.4224033,-3.6955637,27
162469,Starbucks - Avenida Europa Pozuelo,"Avenida de Europa, 11",28224,"Avenida de Europa, 11 28224 ",40.4382078,-3.7943604,39
206343,Tu Poke - Calle Rusia,"Calle Rusia, 8",28032,"Calle Rusia, 8 28032 ",40.4241229,-3.6095023,34
218008,Wok Arcentales,"Av. de Arcentales, 20,",28022,"Av. de Arcentales, 20, 28022 ",40.4341313,-3.6104228,34
219177,Chicago Style pizza,"Calle de San Emilio, 8",28017,"Calle de San Emilio, 8 28017 ",40.4292533,-3.6592425,29
230473,McDonald's - Pozuelo Hipercor,"Calle Rafael Botí, 4,",28023,"Calle Rafael Botí, 4, 28023 ",40.4632204,-3.8032163,38
230484,McDonald's - Majadahonda,"Av. de España, s/n,",28220,"Av. de España, s/n, 28220 ",40.4758096,-3.868745,34
242398,Pastelería Mallorca - Andes,"Av. de los Andes, 22, 28043 Madrid",28043,"Av. de los Andes, 22, 28043 Madrid 28043 ",40.4548552,-3.6206523,57
251559,KFC MADRID GOYA 68 - Activo,"Calle de Goya, 68,",28001,"Calle de Goya, 68, 28001 ",40.4247007,-3.6768511,36
79736,Goiko Grill - Pez,Calle del Pez 36,28004,Calle del Pez 36 28004 ,40.4242214,-3.7064435,35
81926,Maki - La Gavia,Avda Ensanche de Vallecas 18,28051,Avda Ensanche de Vallecas 18 28051 ,40.3692872,-3.6115285,32
108136,Jin Jin express (Rey Pato),"San bernardino, 1",28015,"San bernardino, 1 28015 ",40.4247869,-3.7098694,39
137110,The Burger Lobby - Boadilla del Monte,Av. Infante Don Luis 7 - Boadilla del Monte,28660,Av. Infante Don Luis 7 - Boadilla del Monte 28660 ,40.4068477,-3.8956434,40
187665,Pans & Company - PC Plenilunio,"calle aracne, 3,",28022,"calle aracne, 3, 28022 ",40.4469408,-3.5875084,26
247507,The Irish Temple - Moratalaz,"Avenida de Moratalaz 123,Posterior",28030,"Avenida de Moratalaz 123,Posterior 28030 ",40.4065442,-3.6498695,41
254642,Restaurante La Penela Moraleja,"Calle Estafeta, Plaza de la Fuente, nº2,",28109,"Calle Estafeta, Plaza de la Fuente, nº2, 28109 ",40.5143812,-3.6526794,18
26644,Goiko Grill - General Perón,Avenida del General Perón 16,28020,Avenida del General Perón 16 28020 ,40.4522305,-3.6968825,40
132840,TGB AVDA INFANTE DON LUIS 6 (BOADILLA DEL MONTE),Av. Infante Don Luis 6 - Boadilla del Monte,28660,Av. Infante Don Luis 6 - Boadilla del Monte 28660 ,40.4093287,-3.8951659,37
176624,Starbucks - C.C. Dreams. C/Silvano,"CC Dreams. C/Silvano, 77",28043,"CC Dreams. C/Silvano, 77 28043 ",40.4631976,-3.6373448,44
181558,Carl's Junior - Colón,"Calle de Goya, 5",28001,"Calle de Goya, 5 28001 ",40.4257494,-3.6889139,36
222566,McDonald's - Isaac Peral,Calle de Isaac Peral 4,28015,Calle de Isaac Peral 4 28015 ,40.4349613,-3.7180652,42
224192,McDonald's - La Vaguada,"Av. de Monforte de Lemos, 36,",28029,"Av. de Monforte de Lemos, 36, 28029 ",40.4798322,-3.707023,37
230817,La Piemontesa,Avda. Siglo XXI 13,28660,Avda. Siglo XXI 13 28660 ,40.4068109,-3.9008762,31
251513,80 Grados Pozuelo,"Av. de Europa, 11",28224,"Av. de Europa, 11 28224 ",40.4382078,-3.7943604,40
257608,KFC MADRID CC PLENILUNIO - Activo,"C/ Aracne S/N CC Plenilunio,",28022,"C/ Aracne S/N CC Plenilunio, 28022 ",40.446969,-3.587343,34
23961,Vips - Mirasierra,"Calle Mirador de la Reina, 107",28035,"Calle Mirador de la Reina, 107 28035 ",40.4908116,-3.7225264,29
140519,Tony Roma's - Silvano,"Calle de Silvano, 92",28043,"Calle de Silvano, 92 28043 ",40.4624843,-3.6378318,29
159173,Foster's Hollywood - Avenida Europa,"Av. de la Comunidad de Madrid, 3 - Pozuelo de Alarcón",28224,"Av. de la Comunidad de Madrid, 3 - Pozuelo de Alarcón 28224 ",40.4387741,-3.7935612,26
162421,Starbucks - Diversia,"Av. de Bruselas, 21",28108,"Av. de Bruselas, 21 28108 ",40.5300823,-3.6396724,22
162447,Starbucks - Orense 79,"Calle de Orense, 79",28020,"Calle de Orense, 79 28020 ",40.4596586,-3.6944521,32
180687,Papa John's Vallejo,"Paseo de Juan Antonio Vallejo-Nájera Botas, 25",28005,"Paseo de Juan Antonio Vallejo-Nájera Botas, 25 28005 ",40.4016859,-3.708348,30
216925,El Corte Inglés - (Sanchinarro),"Calle Margarita de Parma, 1,",28050,"Calle Margarita de Parma, 1, 28050 ",40.4977309,-3.6611356,38
231801,KFC MADRID CC ISLAZUL - Activo,"CC Islazul. Avd De la Peseta. C/ de la Calderilla, 1. Local 144A,",28054,"CC Islazul. Avd De la Peseta. C/ de la Calderilla, 1. Local 144A, 28054 ",40.3633759,-3.7389515,42
242678,El Corte Inglés - (C.Naciones),"Avda. de los Andes, 50",28042,"Avda. de los Andes, 50 28042 ",40.4564336,-3.6178227,33
249656,McDonald's - Kinépolis,"C/Edgar Neville, s/n Ciudad de la Imagen,",28223,"C/Edgar Neville, s/n Ciudad de la Imagen, 28223 ",40.3943626,-3.7983148,34
253281,McDonald's - Cuatro Caminos,Glorieta de Cuatro Caminos 5,28020,Glorieta de Cuatro Caminos 5 28020 ,40.4474663,-3.7042083,41
255757,Restaurante Seng,"Av. Siglo XXI 9, local 10",28660,"Av. Siglo XXI 9, local 10 28660 ",40.406284,-3.897548,24
22497,Tuk-Tuk Alcala,"Calle de Alcalá, 167",28009,"Calle de Alcalá, 167 28009 ",40.4262427,-3.6729128,36
26645,Goiko Grill - Santa Engracia,"Calle de Sta Engracia, 157",28003,"Calle de Sta Engracia, 157 28003 ",40.4445826,-3.7032462,31
77823,Mandarin Express,Calle Jaen 23,28020,Calle Jaen 23 28020 ,40.4504599,-3.700139,40
154553,Mister O1 Pizza Extraordinaria,"Calle de Sor Ángela de la Cruz, 22",28020,"Calle de Sor Ángela de la Cruz, 22 28020 ",40.4598505,-3.6949655,37
164652,Macao at Home,Calle Príncipe 16,28012,Calle Príncipe 16 28012 ,40.4153847,-3.7006407,35
171276,La Federala,"Calle Polvoranca, 108",28923,"Calle Polvoranca, 108 28923 ",40.33825,-3.8135311,28
202699,Taco Bell - CC H2O,"Calle Marie Curie, 4,",28521,"Calle Marie Curie, 4, 28521 ",40.3372358,-3.525936,22
225256,KFC MADRID AVD ALBUFERA 26 - Activo,"Av. de la Albufera, 26,",28038,"Av. de la Albufera, 26, 28038 ",40.397199,-3.6673762,36
230342,Mila y Nesa (Madrid),"Calle de la Encomienda, 19",28012,"Calle de la Encomienda, 19 28012 ",40.4105753,-3.7059637,24
232028,KFC ARROYOMOLINOS CC XANADU,"calle Puerto de Navacerrada, s/n. Local R-21,",28939,"calle Puerto de Navacerrada, s/n. Local R-21, 28939 ",40.2996255,-3.9254003,39
245407,McDonald's - Alcalá,"Calle de Alcalá, 396,",28027,"Calle de Alcalá, 396, 28027 ",40.4365124,-3.6401872,38
247009,McDonald's - La Latina,C/ Toledo 63,28005,C/ Toledo 63 28005 ,40.4111589,-3.7078357,28
250367,McDonald's - Alcobendas BP,"Calle del Marqués de la Valdavia, 140,",28100,"Calle del Marqués de la Valdavia, 140, 28100 ",40.5474564,-3.6561848,39
8852,Steak Burger - Atocha,"Calle de Atocha, 110",28012,"Calle de Atocha, 110 28012 ",40.409597,-3.6936573,29
17665,Maki - Castellana,"Paseo de la Castellana, 89",28046,"Paseo de la Castellana, 89 28046 ",40.4499767,-3.6916087,25
18643,La Mafia se Sienta a la Mesa - Colon,Calle de Goya 5,28001,Calle de Goya 5 28001 ,40.4257494,-3.6889139,37
22407,Vips - Méndez Álvaro,"Calle Méndez Álvaro, 72",28045,"Calle Méndez Álvaro, 72 28045 ",40.394249,-3.6800324,29
41587,Taco Bell - Princesa,"Calle de la Princesa, 3",28008,"Calle de la Princesa, 3 28008 ",40.4250332,-3.7134458,37
117130,Anauco - Jose Fina,"Calle Jose Fina Aldecoa, 13, local 5",28055,"Calle Jose Fina Aldecoa, 13, local 5 28055 ",40.4943528,-3.6153663,42
162475,Starbucks - Padre Damián,"Calle de Padre Damián, 29",28036,"Calle de Padre Damián, 29 28036 ",40.4594488,-3.6856825,40
208084,Asador de pollos Virginia,"Av Vicente Ferrer 17, local 6",28918,"Av Vicente Ferrer 17, local 6 28918 ",40.3380286,-3.784093,19
242690,El Corte Inglés - (Castellana),"CALLE RAIMUNDO FERNANDEZ VILLAVERDE, 79,",28046,"CALLE RAIMUNDO FERNANDEZ VILLAVERDE, 79, 28046 ",40.4472796,-3.6932485,37
250362,McDonald's - El Pinar de Las Rozas,"Centro Comercial Pinar | Ctra. Nacional VI, Km. 22",28232,"Centro Comercial Pinar | Ctra. Nacional VI, Km. 22 28232 ",40.5235599,-3.8844804,36
250920,McDonald's - Getafe,"Av. Juan Carlos I, s/n, Local 3,",28905,"Av. Juan Carlos I, s/n, Local 3, 28905 ",40.288877,-3.7492663,28
39954,Crepes&Waffles Lunch - Fuencarral,"Calle de Fuencarral, 105",28004,"Calle de Fuencarral, 105 28004 ",40.4284864,-3.7022742,29
42892,Tao 3.6.9 Campo de las Naciones,"Avenida de los Andes, 26",28042,"Avenida de los Andes, 26 28042 ",40.4552682,-3.6198078,34
83979,Dunkin' Coffee - Hortaleza,"Av de la Gran Vía de Hortaleza, Centro Comercial Gran Vía de Hortaleza",28043,"Av de la Gran Vía de Hortaleza, Centro Comercial Gran Vía de Hortaleza 28043 ",40.4695711,-3.6410582,40
162450,Starbucks - Reina Sofía,"Calle Dr. Drumen, 4",28012,"Calle Dr. Drumen, 4 28012 ",40.4091219,-3.6931363,28
173482,Entrepanes (Entrepanes Lira) - BASIC,"Calle Hilarión Eslava, 32,",28015,"Calle Hilarión Eslava, 32, 28015 ",40.435215,-3.7165454,26
179358,Tao 3.6.9 - Encinar,"Calle del Camino del Cura, 10",28109,"Calle del Camino del Cura, 10 28109 ",40.5085575,-3.6451364,34
198945,Out Fry - Editions SOR,"calle sorgo,17,",28039,"calle sorgo,17, 28039 ",40.4663771,-3.7068448,39
206948,Lopez y Lopez - Malasaña,"Calle Loreto y Chicote 3,",28004,"Calle Loreto y Chicote 3, 28004 ",40.4213928,-3.7037546,25
245625,John Barrita At home by La Tasquería,"Calle Duque de Sesto, 48,",28009,"Calle Duque de Sesto, 48, 28009 ",40.4223208,-3.673785,33
253153,McDonald's - Móstoles Fuensanta,"Centro Comercial La Fuensanta, Av. de la Onu, 65,",28936,"Centro Comercial La Fuensanta, Av. de la Onu, 65, 28936 ",40.3160208,-3.8503623,33
253291,McDonald's - Moratalaz,"C/ Manuel Machado, Calle Alcalde Luis Marichalar, 6, y C,",28030,"C/ Manuel Machado, Calle Alcalde Luis Marichalar, 6, y C, 28030 ",40.4115883,-3.6593169,31
6755,La Mafia se Sienta a la Mesa - Castellana,Paseo Castellana 257,28046,Paseo Castellana 257 28046 ,40.4746598,-3.6875834,29
23621,Sumo - Fuencarral,Calle Fuencarral 116,28010,Calle Fuencarral 116 28010 ,40.429776,-3.70246,29
26503,Goiko Grill - Glorieta de Bilbao,"Glorieta de Bilbao, 3",28004,"Glorieta de Bilbao, 3 28004 ",40.4295466,-3.7022065,30
26646,Goiko Grill - Princesa,"Calle de la Princesa, 26",28008,"Calle de la Princesa, 26 28008 ",40.4277238,-3.7139495,32
51269,Dunkin' Coffee - Fuencarral,"Calle de Fuencarral, 43",28004,"Calle de Fuencarral, 43 28004 ",40.4229847,-3.7010569,24
83059,Fridays - La Gavia,"Calle Adolfo Bioy Casares, 37",28031,"Calle Adolfo Bioy Casares, 37 28031 ",40.3688256,-3.5982742,26
97186,Goiko Grill - Galileo,Calle de Galileo 50,28015,Calle de Galileo 50 28015 ,40.4344628,-3.7100559,41
160641,800burritos,"Calle del Conde de Torralba, 11",28046,"Calle del Conde de Torralba, 11 28046 ",40.4784374,-3.6849352,26
173720,Puccias,"Calle de la Libertad, 9, Madrid, Spain",28004,"Calle de la Libertad, 9, Madrid, Spain 28004 ",40.4207185,-3.6976381,33
180712,Papa John's Mostoles 2,Rio Ebro 13,28935,Rio Ebro 13 28935 ,40.313143,-3.8785343,22
183473,Goiko Grill - Basics,"Calle de Hortaleza, 60",28004,"Calle de Hortaleza, 60 28004 ",40.4226578,-3.6993011,33
192522,Tasty Poke - Majadahonda,"Ctra De Boadilla 2 28220 - (Majadahonda) - Madrid,",28220,"Ctra De Boadilla 2 28220 - (Majadahonda) - Madrid, 28220 ",40.467854,-3.870916,39
222555,McDonald's - Alberto Alcocer,Avenida de Alberto Alcocer 37,28016,Avenida de Alberto Alcocer 37 28016 ,40.4588564,-3.6815579,42
241043,Pinsa Pizza - María de Molina,"Calle maria de molina 10,",28006,"Calle maria de molina 10, 28006 ",40.4376932,-3.687819,39
242702,El Corte Inglés - (Pozuelo),"km. 12,500 carretera de La Coruña,",28224,"km. 12,500 carretera de La Coruña, 28224 ",40.4628649,-3.8080078,28
249103,Foster´s Hollywood -Xanadú,"Calle Puerto de Navacerrada, Km. 23, 5,",28939,"Calle Puerto de Navacerrada, Km. 23, 5, 28939 ",40.2996058,-3.9261572,17
254470,El Telégrafo,"Calle de Padre Damián, 44,",28036,"Calle de Padre Damián, 44, 28036 ",40.4595293,-3.6851656,23
262373,Ramen Kagura - Getafe,"Calle Alcalde Jesús Prieto, 3,",28907,"Calle Alcalde Jesús Prieto, 3, 28907 ",40.32807,-3.7305839,38
12928,Vips - Arturo Soria,"Calle de Arturo Soria, 177",28043,"Calle de Arturo Soria, 177 28043 ",40.4576126,-3.6584182,21
26962,Ramen Kagura,Calle de las Fuentes 1 Madrid,28013,Calle de las Fuentes 1 Madrid 28013 ,40.416807,-3.708749,35
40372,Il Profumo,"Calle de Silvano, 47",28043,"Calle de Silvano, 47 28043 ",40.4564549,-3.6452927,22
42890,Tao 3.6.9 Bernabéu,"Calle Profesor Waksman, 13",28036,"Calle Profesor Waksman, 13 28036 ",40.4561291,-3.6872995,37
42891,Tao 3.6.9 Arturo Soria,"Calle Caleruega, 39",28033,"Calle Caleruega, 39 28033 ",40.4789639,-3.6710542,21
42966,Dunkin' Coffee - Bravo Murillo,"Calle de Bravo Murillo, 151",28021,"Calle de Bravo Murillo, 151 28021 ",40.4512745,-3.7035316,27
83097,Vips - Islazul,"Calle Calderilla, 1,",28054,"Calle Calderilla, 1, 28054 ",40.3637278,-3.7374791,36
83935,Doli Indian Restaurante,Calle Diego de León 13,28006,Calle Diego de León 13 28006 ,40.4352562,-3.6839354,34
87600,"TGB AV FELIPE II, 16 (MADRID)",Avenida de Felipe II 16,28009,Avenida de Felipe II 16 28009 ,40.4239462,-3.6758254,26
87625,Kebab Antalia,Luisa Fernanda 10,28008,Luisa Fernanda 10 28008 ,40.4257536,-3.7151246,29
105813,TGB CC ISLAZUL (MADRID),"Calle Calderilla, 1",28054,"Calle Calderilla, 1 28054 ",40.3637278,-3.7374791,26
145586,Palacio de King,Plaza José Celestino Mutis 2,28522,Plaza José Celestino Mutis 2 28522 ,40.3544156,-3.5305956,26
149410,Manolo Bakes - Gran Vía de Hortaleza,"Avenida de la Gran Vía de Hortaleza, s/n Centro Comercial Carrefour",28043,"Avenida de la Gran Vía de Hortaleza, s/n Centro Comercial Carrefour 28043 ",40.4695711,-3.6410582,32
215175,Tasty Poké - Moncloa,"Calle de la Princesa, 98,",28008,"Calle de la Princesa, 98, 28008 ",40.4351999,-3.7186798,30
225948,Manolo Bakes - Moratalaz,"CC Moratalaz Alcampo, local 11. Calle Manuel Machado, 3",28030,"CC Moratalaz Alcampo, local 11. Calle Manuel Machado, 3 28030 ",40.4122764,-3.6605114,33
226793,KFC ALCORCON CC TRES AGUAS - Activo,"Centro Comercial Tres Aguas, Av. San Martín de Valdeiglesias, 20",28922,"Centro Comercial Tres Aguas, Av. San Martín de Valdeiglesias, 20 28922 ",40.3582862,-3.8318809,26
233381,Tienda 24 horas Filipinas,Av. de Filipinas 30,28003,Av. de Filipinas 30 28003 ,40.440427,-3.7085932,27
245545,McDonald's - Madrid Avenida Andalucía,"Av. de Andalucía, 19,",28041,"Av. de Andalucía, 19, 28041 ",40.3660035,-3.6937835,52
253012,McDonald's - Coslada,"Av. de San Pablo, 51,",28823,"Av. de San Pablo, 51, 28823 ",40.431344,-3.5329288,51
254960,80 Grados Malasaña,"Calle de Manuela Malasaña, 10",28004,"Calle de Manuela Malasaña, 10 28004 ",40.4287118,-3.7036391,39
255836,Vietnam restaurante,"Calle de Las Huertas, 4,",28012,"Calle de Las Huertas, 4, 28012 ",40.4139587,-3.7010965,28
23972,Vips - Miguel Ángel,"Calle Miguel Ángel, 11",28010,"Calle Miguel Ángel, 11 28010 ",40.4354525,-3.6915487,29
30486,Tasty,"Av. de Europa, 16",28224,"Av. de Europa, 16 28224 ",40.4373726,-3.7941799,31
40208,Vips - Majadahonda,"Plaza Colón, s/n",28220,"Plaza Colón, s/n 28220 ",40.4693862,-3.8707424,25
42889,Tao 3.6.9 La Moraleja,"Calle Begonia, 135",28109,"Calle Begonia, 135 28109 ",40.5221881,-3.6446216,23
59270,Arepa Olé - Bravo Murillo,"Bravo Murillo 224, 28020, Madrid",28020,"Bravo Murillo 224, 28020, Madrid 28020 ",40.4580627,-3.7007996,26
83094,Vips - Albufera,"Avenida de la albufera, 25.",28038,"Avenida de la albufera, 25. 28038 ",40.3972953,-3.6670058,36
109612,Restaurante Layali,"Calle Raquel Meller, 8",28027,"Calle Raquel Meller, 8 28027 ",40.4323824,-3.6573334,37
158211,Manolo Bakes - Parquesur,"Parquesur, Local 19",28916,"Parquesur, Local 19 28916 ",40.3401454,-3.7331842,34
172019,Foster's Hollywood - La Gavia,"Calle Alto del Retiro, 33",28051,"Calle Alto del Retiro, 33 28051 ",40.3697901,-3.5958322,21
176213,Starbucks - Calle de Orense,"Calle de Orense, 6",28020,"Calle de Orense, 6 28020 ",40.4479462,-3.6952201,34
196735,El Sabroso - Vicalvaro,"Calle de S. Cipriano, 17,",28032,"Calle de S. Cipriano, 17, 28032 ",40.4042453,-3.6070518,20
206561,Manolo Bakes - Príncipe Pío,"Paseo de la Florida, 2,",28008,"Paseo de la Florida, 2, 28008 ",40.4213154,-3.7193638,27
209981,CRUDO - MÓSTOLES,"AVENIDA DE LA ONU 65,",28937,"AVENIDA DE LA ONU 65, 28937 ",40.3158548,-3.8501821,25
210235,ZUPPA - Atocha,"Calle de Atocha, 47,",28012,"Calle de Atocha, 47, 28012 ",40.413298,-3.7006209,31
224934,KFC ALCOBENDAS CC HERON DIVERSIA - Activo,"avendia bruselas, 21,",28108,"avendia bruselas, 21, 28108 ",40.5300823,-3.6396724,20
224975,KFC MADRID C GRAL RICARDOS 8 - Activo,"C/ General Ricardos, 8,",28019,"C/ General Ricardos, 8, 28019 ",40.3972183,-3.7172325,42
243524,DK Catering- (Algete),"Carr. de Fuencarral, 44,",28108,"Carr. de Fuencarral, 44, 28108 ",40.52496,-3.65578,23
250377,McDonald's - Majadahonda El Tejar,"C/ De los Matemáticos, s/n | Junto a C.C. Gran Plaza 2 - 28222 Majadahonda - M V-21, Parcela, AC-2, 1,",28222,"C/ De los Matemáticos, s/n | Junto a C.C. Gran Plaza 2 - 28222 Majadahonda - M V-21, Parcela, AC-2, 1, 28222 ",40.4912269,-3.8986152,30
257763,Pizza Hut - Leganés,"Av. Rey Juan Carlos I, 73,",28916,"Av. Rey Juan Carlos I, 73, 28916 ",40.3365834,-3.7420251,18
257779,Pizza Hut - Las Rosas,"Calle de Aquitania, 25,",28032,"Calle de Aquitania, 25, 28032 ",40.41911,-3.61786,24
13503,Queen Burger Gourmet - Mirasierra,"Calle San Modesto, 34",28034,"Calle San Modesto, 34 28034 ",40.4856601,-3.6920828,18
15084,Du Liban,"Calle de la Estafeta, 2, Alcobendas",28109,"Calle de la Estafeta, 2, Alcobendas 28109 ",40.51434,-3.6525354,27
23985,Vips - Tucuman,"Avenida de los Andes, 1",28043,"Avenida de los Andes, 1 28043 ",40.4551102,-3.6224222,23
23995,Tony Roma's - Orense,"Calle Orense, 34",28020,"Calle Orense, 34 28020 ",40.4545157,-3.6944674,23
30346,Banibanoo,"Calle de las Mártires Concepcionistas, 19",28006,"Calle de las Mártires Concepcionistas, 19 28006 ",40.4289839,-3.6706892,22
36831,Clandestino Burger Joint,"C/ Eloy Gonzalo, 12",28010,"C/ Eloy Gonzalo, 12 28010 ",40.433872,-3.7025226,34
38711,Goiko Grill - María de Molina,"Calle María de Molina, 20",28006,"Calle María de Molina, 20 28006 ",40.4376673,-3.6867095,30
53598,KM de Pizza - Zurbano,"Calle de Zurbano, 26",28010,"Calle de Zurbano, 26 28010 ",40.4292179,-3.69355,24
109209,Tony Roma's - Prado,Calle del Prado 4,28014,Calle del Prado 4 28014 ,40.4144883,-3.6997333,21
129277,Carl's Junior - Islazul,"calle treseta, 3",28054,"calle treseta, 3 28054 ",40.36524,-3.73872,25
137144,Papizza - Plenilunio,"Calle Aracne, s / n - Plenilunio",28022,"Calle Aracne, s / n - Plenilunio 28022 ",40.446969,-3.587343,19
161768,Carl's Junior - Fuencarral,Calle Fuencarral 135,28010,Calle Fuencarral 135 28010 ,40.4319415,-3.7038503,24
180646,Papa John's Príncipe,"Calle del Príncipe de Vergara, 100",28006,"Calle del Príncipe de Vergara, 100 28006 ",40.4378611,-3.6788941,38
196838,Gran Nemrut - Las Tablas,"Calle Palas del Rey 20,",28050,"Calle Palas del Rey 20, 28050 ",40.5061815,-3.6656222,16
224950,KFC PARLA CC EL FERIAL- Activo,"C/ Pinto, s/n,",28980,"C/ Pinto, s/n, 28980 ",40.2397058,-3.7613431,20
229225,La Tagliatella Capitan Haya,"C/ POETA JOAN MARAGALL, 53,",28020,"C/ POETA JOAN MARAGALL, 53, 28020 ",40.4635427,-3.6917713,18
242708,El Corte Inglés - (Preciados),"CALLE PRECIADOS, 3,",28013,"CALLE PRECIADOS, 3, 28013 ",40.417669,-3.7048433,20
255437,Sánchez Romero Castelló-Goya,"Calle de Castelló, 23, 25,",28001,"Calle de Castelló, 23, 25, 28001 ",40.4244906,-3.6818551,23
263736,Taco Bell - Plaza Castilla MHOR,"Paseo de la Castellana, 191A,",28029,"Paseo de la Castellana, 191A, 28029 ",40.4674408,-3.6896352,31
23963,Vips - Calle de José Ortega y Gasset,"Calle de José Ortega y Gasset, 29",28006,"Calle de José Ortega y Gasset, 29 28006 ",40.4306155,-3.6830042,16
48123,Sushi Shop - Habana,"Paseo de la Habana, 54",28036,"Paseo de la Habana, 54 28036 ",40.4509859,-3.6864852,24
61449,Sushi Artist - Majadahonda,"calle moreras, 2",28222,"calle moreras, 2 28222 ",40.4523131,-3.8683936,17
104007,Makau Poke,Avenida General Peron 32,28020,Avenida General Peron 32 28020 ,40.4519151,-3.6942988,15
108046,Sumo - Pozuelo - NEW,"Av. Victoria, 2",28023,"Av. Victoria, 2 28023 ",40.4679104,-3.8152879,23
108750,Paraíso Chino,Paseo de la Esperanza 14,28005,Paseo de la Esperanza 14 28005 ,40.3987823,-3.7031083,25
180664,Papa John's Serrano,"Calle Serrano, 203",28016,"Calle Serrano, 203 28016 ",40.4531205,-3.6807654,20
186054,Madridelicia Bakery & cafe,"Calle de Francos Rodríguez, 69, Madrid, Spain,",28039,"Calle de Francos Rodríguez, 69, Madrid, Spain, 28039 ",40.4572998,-3.712296,22
187670,Pans & Company - PC Parquesur,"av. gran bretaña, s/n, Leganes",28916,"av. gran bretaña, s/n, Leganes 28916 ",40.3407111,-3.7428726,26
189734,Pizzería L'Vecchia - Pilar de Zaragoza,"Calle del Pilar de Zaragoza, 31",28028,"Calle del Pilar de Zaragoza, 31 28028 ",40.4337232,-3.669514,29
199835,Burger King - Madrid - Santa Bárbara,"Plaza de Sta. Bárbara, 7,",28004,"Plaza de Sta. Bárbara, 7, 28004 ",40.4270796,-3.6958294,21
209808,La Tagliatella - Pozuelo de Alarcon,"Avenida de La Comunidad de Madrid 3,",28224,"Avenida de La Comunidad de Madrid 3, 28224 ",40.4387741,-3.7935612,23
224814,KFC COSLADA AVD SAN PABLO 40 - Activo,"Av. de San Pablo, 40,",28823,"Av. de San Pablo, 40, 28823 ",40.4304048,-3.5339951,29
230464,McDonald's - La Paz,"Paseo de la Castellana, 261,",28046,"Paseo de la Castellana, 261, 28046 ",40.4811633,-3.6873983,20
242463,Pastelería Mallorca - Pozuelo,"Calle Grecia, 1, 28224 Pozuelo de Alarcón, Madrid",28224,"Calle Grecia, 1, 28224 Pozuelo de Alarcón, Madrid 28224 ",40.43388,-3.80023,35
248679,Lateral - Santa Ana,"Plaza de Sta. Ana, 12",28012,"Plaza de Sta. Ana, 12 28012 ",40.4143915,-3.7011065,34
252844,McDonald's - Jumbo,"Centro Comercial Alcampo | Avda. Pío XII, nº 2 | Local nº 15,",28016,"Centro Comercial Alcampo | Avda. Pío XII, nº 2 | Local nº 15, 28016 ",40.4627244,-3.6750523,30
261696,Kalei Poké - Alcobendas,"Av. de Valdelaparra, 59,",28108,"Av. de Valdelaparra, 59, 28108 ",40.5395513,-3.6520483,20
6112,Krachai - Thai Cuisine,"Calle de Fernando VI, 11",28004,"Calle de Fernando VI, 11 28004 ",40.4253555,-3.6962,24
18856,TGB PASEO DE LA CASTELLANA (MADRID),"Paseo de la Castellana, 91",28046,"Paseo de la Castellana, 91 28046 ",40.4505292,-3.6915988,31
22408,Vips - Avenida Mediterráneo,"Calle Conde de Cartagena, 18",28007,"Calle Conde de Cartagena, 18 28007 ",40.4075546,-3.6735797,30
23901,Ginos - Velazquez,"Calle Velázquez, 136",28006,"Calle Velázquez, 136 28006 ",40.4398106,-3.6825683,18
28320,Buenas y Santas,"Calle de Bolívar, 9",28045,"Calle de Bolívar, 9 28045 ",40.3924909,-3.6927927,34
50001,Comenssana,"Av. Donostiarra, 15",28027,"Av. Donostiarra, 15 28027 ",40.4349881,-3.6574056,25
57589,Tuk-Tuk Parquesur,Av. de Gran Bretaña 1,28916,Av. de Gran Bretaña 1 28916 ,40.33946,-3.73349,26
65808,Wings 4 You,Calle Goya 115,28009,Calle Goya 115 28009 ,40.4248074,-3.6718707,20
83323,Taco Bell - Moncloa,"Calle de Isaac Peral, 4",28015,"Calle de Isaac Peral, 4 28015 ",40.4349613,-3.7180652,28
116937,Giulietta,Plaza Manuel Rodrigo 7,28043,Plaza Manuel Rodrigo 7 28043 ,40.4599207,-3.6327246,25
159668,Foster's Hollywood - La Vaguada,"Av. de Monforte de Lemos, 36 - C.C. La Vaguada",28029,"Av. de Monforte de Lemos, 36 - C.C. La Vaguada 28029 ",40.4800101,-3.7074566,22
162435,Starbucks - Quevedo,"Glorieta de Quevedo, 9",28015,"Glorieta de Quevedo, 9 28015 ",40.4334094,-3.7038213,32
183917,Vips - Xanadú,"Calle Puerto de Navacerrada, km 23, 5",28939,"Calle Puerto de Navacerrada, km 23, 5 28939 ",40.2996058,-3.9261572,28
197474,Burger King - Boadilla - Av Nuevo Mundo 1,"Av. Nuevo Mundo, 14,",28660,"Av. Nuevo Mundo, 14, 28660 ",40.4061085,-3.888804,21
215532,Foster´s Hollywood - Boadilla,"Avenida Infante Don Luis Locales 1 y 2,",28660,"Avenida Infante Don Luis Locales 1 y 2, 28660 ",40.4042499,-3.8965188,25
223637,Carl's Jr Mostoles,"C/ NAPOLES 10 - LOCAL 3,",28938,"C/ NAPOLES 10 - LOCAL 3, 28938 ",40.7324894,-73.8101055,25
224951,Viena Capellanes - Europa,"Av. de Europa, 5,",28224,"Av. de Europa, 5, 28224 ",40.4361941,-3.7982217,18
232048,KFC MADRID EF ATOCHA - Activo,"C/ Atocha, 118,",28051,"C/ Atocha, 118, 28051 ",40.4092657,-3.6930305,25
240750,El Corte Inglés - (C. de la Princesa),"C. de la Princesa, 56, 1ªplanta,,",28008,"C. de la Princesa, 56, 1ªplanta,, 28008 ",40.430088,-3.7152529,21
253490,Taco Bell - Preciados,"Calle de Preciados, 29,",28013,"Calle de Preciados, 29, 28013 ",40.4195564,-3.70638,35
257676,Goiko - Heron City,"Calle Camilo Jose Cela 2. Local 12-13,",28232,"Calle Camilo Jose Cela 2. Local 12-13, 28232 ",40.51517,-3.89765,36
14393,Indian Aroma,"Calle de Ventura de la Vega, 6",28014,"Calle de Ventura de la Vega, 6 28014 ",40.4159588,-3.6991374,23
23619,Sumo - Cuzco,Calle Sor Ángela de la Cruz 8,28020,Calle Sor Ángela de la Cruz 8 28020 ,40.4595762,-3.6928152,21
23620,Sumo - Gran Vía,Calle Gran Vía 1,28013,Calle Gran Vía 1 28013 ,40.4190463,-3.6980245,30
39814,Fridays - Alcorcón,"Av. de Europa, 2",28922,"Av. de Europa, 2 28922 ",40.35069,-3.846272,18
43700,Tako Away - Alcalá 329,"Calle Alcalá, 329",28027,"Calle Alcalá, 329 28027 ",40.433071,-3.6495164,25
44840,Bonsai Garden,"Calle del Valle de Pinares Llanos, 8",28035,"Calle del Valle de Pinares Llanos, 8 28035 ",40.4858542,-3.7187715,21
62265,Häagen-Dazs - Calle del Carmen,"Calle del Carmen, 1",28013,"Calle del Carmen, 1 28013 ",40.4173574,-3.7036958,18
67719,Vips - ParqueSur,Avenida de de Gran Bretaña 1 G,28916,Avenida de de Gran Bretaña 1 G 28916 ,40.33946,-3.73349,18
80822,Xinito Restaurante,Calle veneros 6,28220,Calle veneros 6 28220 ,40.4691379,-3.8532271,22
132337,Vips - Boadilla,"Calle Isabel II, 1 - Boadilla del Monte",28660,"Calle Isabel II, 1 - Boadilla del Monte 28660 ",40.4083149,-3.8806604,25
176318,Starbucks - Beatriz,"Ortega y Gasset, 29",28006,"Ortega y Gasset, 29 28006 ",40.4306155,-3.6830042,17
180691,Papa John's Sanse,"Calle María Moliner, 1",28702,"Calle María Moliner, 1 28702 ",40.5624263,-3.615469,12
185088,La Fina Pizza,Calle Lagasca 128,28006,Calle Lagasca 128 28006 ,40.4360234,-3.6842247,35
198950,Mission Saigon - Editions SOR,"calle sorgo,17",28039,"calle sorgo,17 28039 ",40.4663771,-3.7068448,36
209542,La Tagliatella - Alcalá 498,"Calle de Alcalá 498,",28027,"Calle de Alcalá 498, 28027 ",40.4401681,-3.6283901,16
221818,TGB AV. MONASTERIO DEL ESCORIAL 86A (MONTECARMELO-MADRID),"Avd. Monasterio de El Escorial, 86,",28049,"Avd. Monasterio de El Escorial, 86, 28049 ",40.5101074,-3.6927134,17
245548,McDonald's - Carabanchel Repsol,Avenida de la Peseta nº 6,28054,Avenida de la Peseta nº 6 28054 ,40.3683792,-3.7658895,25
246127,McDonald's - Madrid Albufera,"Av. de la Albufera, 1",28018,"Av. de la Albufera, 1 28018 ",40.3983467,-3.6687014,29
246992,McDonald's - Vallecas Villa,"Avenida de la Albufera esq, Calle de Bruno Abúndez, s/n,",28031,"Avenida de la Albufera esq, Calle de Bruno Abúndez, s/n, 28031 ",40.3836162,-3.6317591,25
254959,80 Grados Castellana,"Paseo de la Castellana, 128",28046,"Paseo de la Castellana, 128 28046 ",40.4499374,-3.6902337,34
11720,Le Crust,"Calle de Melilla, 47B",28005,"Calle de Melilla, 47B 28005 ",40.4006328,-3.7097679,17
17878,Irsushi - Arganzuela,"Calle de Bolívar, 4",28045,"Calle de Bolívar, 4 28045 ",40.3912952,-3.6942862,23
22409,Vips - Clara del Rey,"Calle Clara del Rey, 59",28002,"Calle Clara del Rey, 59 28002 ",40.4455454,-3.6684325,12
30960,Kotobuki,"Calle Antonia Ruiz Soro, 35",28035,"Calle Antonia Ruiz Soro, 35 28035 ",40.438376,-3.6651362,27
41746,Crepes&Waffles Lunch - Diversia,"Av. de Bruselas, 21",28108,"Av. de Bruselas, 21 28108 ",40.5300823,-3.6396724,23
57652,Shapla - Lavapiés,"Lavapiés, 42",28012,"Lavapiés, 42 28012 ",40.40976,-3.7024641,24
60463,TGB C/ SERRANO JOVER 1 (MADRID),CALLE SERRANO JOVER 1,28015,CALLE SERRANO JOVER 1 28015 ,40.4295985,-3.7148732,15
62699,Dunkin' Coffee - Plaza Río 2,"Calle Antonio López, 109, Centro Comercial Plaza Río 2",28026,"Calle Antonio López, 109, Centro Comercial Plaza Río 2 28026 ",40.3908753,-3.7014217,18
63992,TGB PLAZA DE MANUEL BECERRA 14 (MADRID),"PLAZA DE MANUEL BECERRA,14",28028,"PLAZA DE MANUEL BECERRA,14 28028 ",40.4279437,-3.6676695,28
170467,Foster's Hollywood - Palacio de Hielo,"Calle Silvano 77, C.C. Dreams Palacio Hielo",28043,"Calle Silvano 77, C.C. Dreams Palacio Hielo 28043 ",40.4631976,-3.6373448,18
180699,Papa John's Marques de Viana,"Calle del Marques de Viana, 76",28039,"Calle del Marques de Viana, 76 28039 ",40.4640741,-3.7048228,19
203190,Pizza mirasierra,"calle mirasierra-37,",28026,"calle mirasierra-37, 28026 ",40.3883453,-3.7036732,19
209347,Huerta Nuestra - Madrid,"Calle de Covarrubias, 38,",28010,"Calle de Covarrubias, 38, 28010 ",40.4313117,-3.6979651,30
224646,Pizza Hut - Boadilla,"Av. Siglo XXI, 13,",28660,"Av. Siglo XXI, 13, 28660 ",40.4068109,-3.9008762,15
227085,La Tagliatella Fuencarral,FUENCARRAL 127,28010,FUENCARRAL 127 28010 ,40.4310901,-3.70347,23
251658,TGB C/ ALCALÁ 358 (MADRID),"Calle de Alcalá, 358,",28027,"Calle de Alcalá, 358, 28027 ",40.435035,-3.6438673,31
251962,La Craft Burger,"calle Pelayo 4,,",28004,"calle Pelayo 4,, 28004 ",40.4219025,-3.6990385,21
252441,Pui's Thai Tapas,"Jose Antonio de Armona 7,28012 Madrid",28012,"Jose Antonio de Armona 7,28012 Madrid 28012 ",40.4045637,-3.6966461,16
253018,McDonald's - Torrejón II,"Av. de la Constitución, 108,",28850,"Av. de la Constitución, 108, 28850 ",40.4583895,-3.4666708,24
253552,Totale - Calle Bruguete,"Calle de Burguete, 8,",28050,"Calle de Burguete, 8, 28050 ",40.503292,-3.6776696,26
256738,Ocafú Taberna Gallega - Infanta Mercedes,"Calle de la Infanta Mercedes, 98,",28020,"Calle de la Infanta Mercedes, 98, 28020 ",40.4640124,-3.6928344,26
7265,Orale Compadre,"Calle Pradillo, 30",28004,"Calle Pradillo, 30 28004 ",40.448775,-3.6726351,18
23906,Ginos - Quevedo,"Gta. Quevedo, 8",28015,"Gta. Quevedo, 8 28015 ",40.4338291,-3.703942,23
38149,Pizza Napoli - Tablas,"Calle Manuel Pombo Angulo, 24",28050,"Calle Manuel Pombo Angulo, 24 28050 ",40.50736,-3.65467,26
40597,Vips - Calle Camilo Jose Cela (Las Rozas),"Calle Camilo Jose Cela, 2",28232,"Calle Camilo Jose Cela, 2 28232 ",40.51517,-3.89765,15
50008,Wok 4 You,"Calle de Alcalá, 404",28027,"Calle de Alcalá, 404 28027 ",40.4370404,-3.639688,19
53596,KM de Pizza - Avenida de Brasil,"Av. De Brasil, 6",28020,"Av. De Brasil, 6 28020 ",40.45446,-3.6929909,19
60477,TGB BRAVO MURILLO 120 (MADRID),"Bravo Murillo, 120",28020,"Bravo Murillo, 120 28020 ",40.4486645,-3.7033957,29
62985,Llaollao - Tres Aguas,Centro comercial Tres Aguas Avenida de América 7-8,28992,Centro comercial Tres Aguas Avenida de América 7-8 28992 ,40.3582862,-3.8318809,18
67090,Bowlers (Bowlers Kitchen & Bar),"Calle de Víctor Hugo, 5",28004,"Calle de Víctor Hugo, 5 28004 ",40.4200727,-3.6981874,21
83383,Goiko Grill - Lopéz de Hoyos,Lopéz de Hoyos 161,28002,Lopéz de Hoyos 161 28002 ,40.4490483,-3.6669584,26
116936,Fellina,Calle de Caracas 21,28010,Calle de Caracas 21 28010 ,40.4307523,-3.6942806,22
149711,Tuk Tuk - Pozuelo,"Av. de Europa, 16 - Pozuelo de Alarcón",28010,"Av. de Europa, 16 - Pozuelo de Alarcón 28010 ",40.4373726,-3.7941799,26
164472,TGB CALLE ALCALÁ 490 (MADRID),Alcala 490,28027,Alcala 490 28027 ,40.4399736,-3.6297817,31
172064,Foster's Hollywood - Gran Plaza 2,"Calle de los Químicos, 2, 28222 Majadahonda, Madrid",28222,"Calle de los Químicos, 2, 28222 Majadahonda, Madrid 28222 ",40.4886967,-3.8972119,21
180763,Papa John's Pozuelo,"Calle Benigno Granizo, 1",28224,"Calle Benigno Granizo, 1 28224 ",40.4473079,-3.8014693,24
187139,Ribs - Arturo Soria,"Calle de Gregorio Benítez, 4,",28043,"Calle de Gregorio Benítez, 4, 28043 ",40.4495704,-3.6497891,14
209530,La Tagliatella - Los Andes,"Avenida de los Andes, 25,",28043,"Avenida de los Andes, 25, 28043 ",40.456451,-3.6192547,20
213674,Taco Bell - Colmenar Viejo,"Av. de la Tejera, 2,",28770,"Av. de la Tejera, 2, 28770 ",40.6592075,-3.7548766,16
224846,Pizza Hut - CC Equinocio,"Calle Fresa, CC EQUINOCIO, 2,",28222,"Calle Fresa, CC EQUINOCIO, 2, 28222 ",40.4548816,-3.8747421,14
250263,Roots Lamarca - Fernando VI,"Calle de Fernando VI, 10 Local 4,",28004,"Calle de Fernando VI, 10 Local 4, 28004 ",40.4245974,-3.695643,20
250926,McDonald's - Leganés BP,"Av. de la Lengua Española, nº15",28915,"Av. de la Lengua Española, nº15 28915 ",40.3309954,-3.7420599,21
252236,McDonald's - Rivas Vacia-Madrid,"Avda de los Almendros, s/n,",28526,"Avda de los Almendros, s/n, 28526 ",31.7010455,-106.4065664,20
252863,McDonald's - Alcorcón Urtinsa,"C/ Ebanistas, nº 2 | c/v Avda. de Leganes | Poligono Industrial Urtinsa,",28923,"C/ Ebanistas, nº 2 | c/v Avda. de Leganes | Poligono Industrial Urtinsa, 28923 ",40.3422392,-3.8059131,19
259853,Empanadas Malvón - Las Tablas,"Calle Toques, 21,",28050,"Calle Toques, 21, 28050 ",40.509022,-3.6678853,19
267245,Empanadas Malvón - Pozuelo,"Av. de Europa, 22, Local 7",28224,"Av. de Europa, 22, Local 7 28224 ",40.4365775,-3.7975325,23
18054,Steak Burger - Luchana,"Calle de Luchana, 17",28010,"Calle de Luchana, 17 28010 ",40.4303493,-3.7006243,24
19340,Arpit,"Calle María Tubau, 19",28050,"Calle María Tubau, 19 28050 ",40.5112122,-3.6784682,22
23983,Vips - Calle Serrano Galvache,"Calle Serrano Galvache, 56",28033,"Calle Serrano Galvache, 56 28033 ",40.4760128,-3.6723064,16
26513,Goiko Grill - Chamberí,"Calle Fernández de la Hoz, 33",28020,"Calle Fernández de la Hoz, 33 28020 ",40.4360158,-3.695032,21
29794,Ginos - Alcalá 492,"Calle de Alcalá, 492",28022,"Calle de Alcalá, 492 28022 ",40.4399637,-3.6294309,24
38520,Goiko Grill - Viriato,"Calle de Viriato, 68",28010,"Calle de Viriato, 68 28010 ",40.4354544,-3.6951906,17
55128,Just Italia,"Calle de Castelló, 113",28006,"Calle de Castelló, 113 28006 ",40.435819,-3.6807437,22
56856,Sushi Shop Pozuelo,"Avenida de Europa, 16, 28224 Pozuelo de Alarcón, Madrid",28224,"Avenida de Europa, 16, 28224 Pozuelo de Alarcón, Madrid 28224 ",40.4373726,-3.7941799,17
60160,City Garden Madrid,"Calle de Toledo, 170",28005,"Calle de Toledo, 170 28005 ",40.4026213,-3.7138749,22
65320,"Jleo's ""Sabor Med-Mex"" - Galileo",C/ Galileo 17,28003,C/ Galileo 17 28003 ,40.4318385,-3.7107101,15
86797,Llaollao - Islazul,"Calderilla,1",28054,"Calderilla,1 28054 ",40.3637278,-3.7374791,16
91516,TGB CC EQUINOCCIO PARK (MAJADAHONDA),Calle Fresa 2,28222,Calle Fresa 2 28222 ,40.4538858,-3.8736436,18
91679,Happy Sushi - Juan Sánchez,Calle Cándido Mateos 17,28035,Calle Cándido Mateos 17 28035 ,40.4738769,-3.7185251,13
114575,Batur Kebap,Calle de Alcalá 306,28027,Calle de Alcalá 306 28027 ,40.4327729,-3.6491578,14
121036,Polloco Asador (El pollo loco),Calle Lerida 58,28020,Calle Lerida 58 28020 ,40.4559049,-3.7000886,15
131349,Restaurante Chino Zheng,"Paseo del Quince de Mayo, 3",28019,"Paseo del Quince de Mayo, 3 28019 ",40.397348,-3.7174242,21
132363,Pizzería El Trébol - 24 horas,Nuñez de arce 11,28012,Nuñez de arce 11 28012 ,40.4152775,-3.7012589,14
157652,Tennessee BBQ,calle ricardo ortiz 20,28017,calle ricardo ortiz 20 28017 ,40.4283956,-3.658201,25
165443,Delish Vegan Doughnuts,"Calle Cristo, 3",28015,"Calle Cristo, 3 28015 ",40.4268953,-3.7100329,17
180677,Papa John's Sanchinarro,"Av. del Ing. Emilio Herrera, 13",28050,"Av. del Ing. Emilio Herrera, 13 28050 ",40.4912087,-3.6538693,21
209540,La Tagliatella - La Gavia,"Calle Adolfo Bioy Casares, 2,",28051,"Calle Adolfo Bioy Casares, 2, 28051 ",40.3689253,-3.5991676,20
213100,Pizzerías Carlos - Pozuelo,"Av. de Europa, 29,",28023,"Av. de Europa, 29, 28023 ",40.4446523,-3.788796,21
224623,Pizza Hut - Móstoles,"Calle Petunia, 22,",28933,"Calle Petunia, 22, 28933 ",40.3381708,-3.8668943,13
252897,Shanghai Mama - Riaza,"Calle Riaza, 38,",28023,"Calle Riaza, 38, 28023 ",40.4565815,-3.7839549,16
253072,McDonald's - Madrid Ventisquero la Condesa,"Av. del Ventisquero de la Condesa, 48,",28035,"Av. del Ventisquero de la Condesa, 48, 28035 ",40.4949752,-3.7182985,20
258117,McDonald's - Villalba Planetocio,"Calle Central, 46,Centro Comercial Planetocio",28400,"Calle Central, 46,Centro Comercial Planetocio 28400 ",40.6372869,-4.0174807,17
12737,Singapur,"Calle del Mirador de la Reina, 99",28035,"Calle del Mirador de la Reina, 99 28035 ",40.4892364,-3.7245885,20
13019,Nagoya,"Calle de Trafalgar, 7",28010,"Calle de Trafalgar, 7 28010 ",40.4311392,-3.700698,25
14856,Casa Mestiza by Antojos Araguaney (Antojos Araguaney),"C/ Campo de la Estrella, 7",28050,"C/ Campo de la Estrella, 7 28050 ",40.5043625,-3.671897,19
15675,La Mordida - Bernabeu,"Av de Brasil, 6",28020,"Av de Brasil, 6 28020 ",40.45446,-3.6929909,21
17829,Petit Appetit - Monte Esquinza,"Calle Monte Esquinza, 1",28010,"Calle Monte Esquinza, 1 28010 ",40.4263174,-3.69246,18
18457,Home Burger Bar - Silva,Calle Silva 25,28004,Calle Silva 25 28004 ,40.4218911,-3.7056914,17
23908,Ginos - Ribera de Curtidores,"Ribera de Curtidores, 43",28005,"Ribera de Curtidores, 43 28005 ",40.4052576,-3.7066741,22
23909,Ginos - Principe de Vergara,Calle Principe de Vergara 268,28016,Calle Principe de Vergara 268 28016 ,40.4578995,-3.6766247,18
23927,Ginos - Alcalá 200,Calle Alcalá 200,28028,Calle Alcalá 200 28028 ,40.430247,-3.6638761,19
23958,Vips - Palacio del Hielo,Calle Silvano 77,28043,Calle Silvano 77 28043 ,40.4632213,-3.6370595,21
30452,Bump Green,"Calle de Velázquez, 11",28001,"Calle de Velázquez, 11 28001 ",40.4221667,-3.684619,21
40506,Tony Roma's - Móstoles,"Av. Olímpica, 25",28935,"Av. Olímpica, 25 28935 ",40.329746,-3.8836214,16
52041,Cantina Canalla - MARG,"Calle Antracita, 10",28043,"Calle Antracita, 10 28043 ",40.3902078,-3.6898866,16
64178,The Big Big Cocina,Calle Francisco Silvela 15,28028,Calle Francisco Silvela 15 28028 ,40.4301477,-3.6709173,25
73600,Byblos,"Corredera Baja de San Pablo, 4",28004,"Corredera Baja de San Pablo, 4 28004 ",40.4216281,-3.704713,17
100158,Dunkin' Coffee - Atocha,"Plaza Emperador Carlos V, 10",28012,"Plaza Emperador Carlos V, 10 28012 ",40.4089124,-3.692623,27
123492,Vips - Ronda de Valencia,"Ronda de Valencia, 8",28012,"Ronda de Valencia, 8 28012 ",40.4057753,-3.7008587,20
145724,Bibimbap - Calle Fernandez,Calle de Fernández de los Ríos 40,28015,Calle de Fernández de los Ríos 40 28015 ,40.4351757,-3.7083646,20
152902,TGB CC LA VAGUADA (MADRID),"Av. de Monforte de Lemos, 36",28029,"Av. de Monforte de Lemos, 36 28029 ",40.4798322,-3.707023,21
162459,Starbucks - Parquesur,"Avenida de Gran Bretaña, S / N, CC Parquesur",28916,"Avenida de Gran Bretaña, S / N, CC Parquesur 28916 ",40.3401454,-3.7331842,26
180684,Papa John's Silvano,"Calle de Silvano, 92",28043,"Calle de Silvano, 92 28043 ",40.4624843,-3.6378318,21
187785,Pizza Niccolo´s - Raimundo Fernández Villaverde,"Calle de Raimundo Fernández Villaverde 32,",28003,"Calle de Raimundo Fernández Villaverde 32, 28003 ",40.4461314,-3.698975,9
205584,Carl's Junior - XMadrid,"Calle Oslo, 53,,",28922,"Calle Oslo, 53,, 28922 ",40.3454917,-3.8412146,21
209800,La Tagliatella - Heron City Las Rozas,"Calle de Camilo Jose Cela 3,",28232,"Calle de Camilo Jose Cela 3, 28232 ",40.5195099,-3.8975534,15
224854,KFC FUENLABRADA C LUIS SAUQUILLO 92 - Activo,"Calle Luis Sauquillo, 92,",28944,"Calle Luis Sauquillo, 92, 28944 ",40.2726854,-3.8073113,29
230529,La Tagliatella - Getafe Calle Madrid,"C/ Madrid 51, Bajo 2,",28901,"C/ Madrid 51, Bajo 2, 28901 ",40.3078427,-3.7297097,21
232501,La Tagliatella - Juan Bravo,"C/ Juan Bravo, 35,",28006,"C/ Juan Bravo, 35, 28006 ",40.4328005,-3.6787049,17
235120,La Gustosa Valdebebas,"Calle Maria de las Mercedes 178, 28055 Madrid,",28055,"Calle Maria de las Mercedes 178, 28055 Madrid, 28055 ",40.4929175,-3.6172052,16
246154,McDonald's - Plaza Castilla,"Calle de S. Aquilino, 4, Local 1A,",28029,"Calle de S. Aquilino, 4, Local 1A, 28029 ",40.4675331,-3.6898324,19
248482,Cafetería El Corte Inglés - Princesa,"C. de la Princesa, 56,Edificio 1",28008,"C. de la Princesa, 56,Edificio 1 28008 ",40.430088,-3.7152529,10
251474,KFC SS REYES PC MEGAPARK - Activo,"Av. del Cerro del Águila, 23, Megapark,,",28703,"Av. del Cerro del Águila, 23, Megapark,, 28703 ",40.5472865,-3.6112974,19
253004,McDonald's - Pinto,"Ctra. de Andalucía N-IV, Km.20,2",28320,"Ctra. de Andalucía N-IV, Km.20,2 28320 ",40.246109,-3.6901841,21
253103,McDonald's - Móstoles Estación,Calle Camino del Obispo 6b,28935,Calle Camino del Obispo 6b 28935 ,40.3311487,-3.8846622,28
256745,Ocafú Taberna Gallega - Sagasta,"Calle de Sagasta, 24",28004,"Calle de Sagasta, 24 28004 ",40.427824,-3.6978016,19
268029,Kirei - Editions SOR,"Calle Sorgo 17,",28029,"Calle Sorgo 17, 28029 ",40.4663771,-3.7068448,55
17877,Irsushi - Las Tablas,"Calle de la Sierra de Atapuerca, 52",28050,"Calle de la Sierra de Atapuerca, 52 28050 ",40.5067715,-3.665234,16
18722,Home Burger Bar - Castellana,"Paseo de la Castellana, 210",28046,"Paseo de la Castellana, 210 28046 ",40.4631776,-3.6889547,10
23923,Ginos - Gorbea,"Avenida de Burgos, 119",28050,"Avenida de Burgos, 119 28050 ",40.4967292,-3.666391,18
23944,Ginos - Palacio del Hielo,Calle Silvano 77,28043,Calle Silvano 77 28043 ,40.4632213,-3.6370595,14
26653,Tony Roma's - Numancia,"Avda. del Doctor Federico Rubio y Galí, 78",28039,"Avda. del Doctor Federico Rubio y Galí, 78 28039 ",40.4530075,-3.7128743,14
38784,Pizza Jardín - San Francisco de Sales,"Paseo de S. Fco. de Sales, 25",28003,"Paseo de S. Fco. de Sales, 25 28003 ",40.44193,-3.71432,24
39735,Tony Roma's - Majadahonda,"Carretera de El Plantío, KM 1.800",28221,"Carretera de El Plantío, KM 1.800 28221 ",40.4741857,-3.860606,16
42894,Tao 3.6.9 Atocha,"Calle Méndez Álvaro, 70",28045,"Calle Méndez Álvaro, 70 28045 ",40.39475,-3.67993,16
43041,Massa - Augusto Figueroa,"Calle de Augusto Figueroa, 21",28004,"Calle de Augusto Figueroa, 21 28004 ",40.4227253,-3.69903,12
56076,Pans & Company - PC Chamartín,"Estación de Chamartin, 40",28036,"Estación de Chamartin, 40 28036 ",40.4725545,-3.683137,23
60921,Häagen-Dazs - Calle Bailen,"Calle de Bailén, 15",28013,"Calle de Bailén, 15 28013 ",40.4199572,-3.7127534,14
61695,Arepa Olé - Postas,"Calle de Postas, 26",28012,"Calle de Postas, 26 28012 ",40.4155473,-3.7064383,16
83077,Ginos - La Gavia,"C.C La Gavia / Calle Adolfo Bioy Casares,2",28051,"C.C La Gavia / Calle Adolfo Bioy Casares,2 28051 ",40.3690139,-3.5990357,19
85810,Armenia Ararat,"Calle Carretera de Carabanchel, 5",28223,"Calle Carretera de Carabanchel, 5 28223 ",40.4209865,-3.8028362,17
94377,Tommy Mel's - Islazul,Calle Calderilla 1,28054,Calle Calderilla 1 28054 ,40.3637278,-3.7374791,12
130282,Tuk Tuk - Estella,"Calle de Estella,21",28050,"Calle de Estella,21 28050 ",40.4971562,-3.6743993,20
141395,Namm Food - Parque Sur,"Av. de Gran Bretaña, s/n, (Centro Comercial Parquesur)",28916,"Av. de Gran Bretaña, s/n, (Centro Comercial Parquesur) 28916 ",40.3401454,-3.7331842,21
142940,Las Muns - Chueca,"Calle San Gregorio, 1",28004,"Calle San Gregorio, 1 28004 ",40.4230864,-3.6975947,18
159171,Foster's Hollywood - Magallanes,"Calle Magallanes, 1",28015,"Calle Magallanes, 1 28015 ",40.4323162,-3.7057148,13
162474,Starbucks - Las Rozas,"Calle Juan Ramón Jiménez, 3, CC Las Rozas Village",28232,"Calle Juan Ramón Jiménez, 3, CC Las Rozas Village 28232 ",40.5182696,-3.9010452,21
170474,Foster's Hollywood - Apolonio Morales,Calle Apolonio Morales 1,28036,Calle Apolonio Morales 1 28036 ,40.4636527,-3.6847849,13
176308,Starbucks - Génova 27,Génova 27,28004,Génova 27 28004 ,40.4260169,-3.6921054,25
180744,Papa John's Alcobendas,"Paseo Puente lucha, 7, Portal 6",28100,"Paseo Puente lucha, 7, Portal 6 28100 ",40.5522899,-3.6602669,10
183721,Empanadas Malvon Salamanca,"Calle de Diego de León, 60, Madrid, Spain",28006,"Calle de Diego de León, 60, Madrid, Spain 28006 ",40.4344663,-3.6767451,14
184927,Starbucks - Xanadú,Calle del Puerto de Navacerrada 8,28939,Calle del Puerto de Navacerrada 8 28939 ,40.2977006,-3.930145,14
187164,Ginos - Xanadú,"Calle Puerto de Navacerrada, 5,",28939,"Calle Puerto de Navacerrada, 5, 28939 ",40.3016676,-3.9246831,16
188756,Burger King - Madrid - 119 Bravo M.,"Calle de Bravo Murillo, 119,",28020,"Calle de Bravo Murillo, 119, 28020 ",40.4489257,-3.703836,16
193237,Burger King - Rivas - Avda. Tecnica,"Av. de la Técnica, s/n,",28522,"Av. de la Técnica, s/n, 28522 ",40.3471427,-3.5425901,13
196225,Goiko Grill - Alegra,"Calle Salvador de Madariaga, s/n,",28702,"Calle Salvador de Madariaga, s/n, 28702 ",40.5671987,-3.6090986,21
199842,Burger King - Madrid - Conde de Peñalver,"Calle del Conde de Peñalver, 96,",28006,"Calle del Conde de Peñalver, 96, 28006 ",40.4342952,-3.6746984,21
203921,Pollos a la Brasa,"Calle de Florencio Llorente, 3,",28027,"Calle de Florencio Llorente, 3, 28027 ",40.4329804,-3.6524574,15
204164,Burger King - Villaviciosa de Odón - Villapark,"Av. Quitapesares, s/n,",28670,"Av. Quitapesares, s/n, 28670 ",40.3504586,-3.8976995,20
224967,Viena Capellanes - Poeta Joan Maragall,"Calle del Poeta Joan Maragall, 55,",28020,"Calle del Poeta Joan Maragall, 55, 28020 ",40.464073,-3.6923017,21
230073,Torii Sushi,calle zayas 4,28037,calle zayas 4 28037 ,40.4284994,-3.6248901,14
233033,Empanadas Malvón - Boadilla,"Av. Siglo XXI, 9,",28660,"Av. Siglo XXI, 9, 28660 ",40.4049988,-3.89538,15
245417,McDonald's - Leganés Plaza Nueva,Avenida Puerta del Sol 2,28918,Avenida Puerta del Sol 2 28918 ,40.3447756,-3.758615,22
246121,McDonald's - Vallecas Santa Eugenia,"C/ Real de Argenda, nº 74 | esq. Peñaranda de Bracamonte,",28031,"C/ Real de Argenda, nº 74 | esq. Peñaranda de Bracamonte, 28031 ",40.376137,-3.6048784,18
250858,KFC MADRID C USERA 26 - Activo,"C/ Marcelo Usera 26,",28026,"C/ Marcelo Usera 26, 28026 ",40.3870567,-3.7012843,19
252999,McDonald's - Parla Laguna,"Centro Comercial Laguna Park | Avenida de las Lagunas, nº 5,",28980,"Centro Comercial Laguna Park | Avenida de las Lagunas, nº 5, 28980 ",40.2441618,-3.7777632,15
253503,Cafetería El Corte Inglés - Castellana,"Calle de Raimundo Fernández Villaverde, 79,Centro Comercial Castellana",28003,"Calle de Raimundo Fernández Villaverde, 79,Centro Comercial Castellana 28003 ",40.4466622,-3.6942858,18
254471,El Barril de La Moraleja,"Calle de la Estafeta, 4,",28109,"Calle de la Estafeta, 4, 28109 ",40.5143701,-3.6534396,18
263197,McDonald's - Torrelodones,"Centro Comercial Espacio Torrelodones | Avda. Fontanilla, s/n, Av. Juan Carlos I, 46,",28250,"Centro Comercial Espacio Torrelodones | Avda. Fontanilla, s/n, Av. Juan Carlos I, 46, 28250 ",40.568259,-3.9202654,14
265358,Tandori Masala Indian Cuisine 2 - Fuenlabrada,"Calle de Cuzco, 2,",28945,"Calle de Cuzco, 2, 28945 ",40.2897462,-3.7903049,13
17668,Maki - Mendez Alvaro,"Calle del Mezquite, 2",28045,"Calle del Mezquite, 2 28045 ",40.3965447,-3.6828853,16
41308,Casa Mestiza by Antojos Araguaney (Antojos Araguaney Gourmet Majadahonda),"Calle Granja del Conde, 2",28220,"Calle Granja del Conde, 2 28220 ",40.4743226,-3.8837074,15
49308,Kao Thai,"Calle Sta. Bárbara, 11",28004,"Calle Sta. Bárbara, 11 28004 ",40.4242126,-3.7015587,15
49867,Fitz Burger,"Calle de Gabriel Lobo, 20",28002,"Calle de Gabriel Lobo, 20 28002 ",40.4434346,-3.6799227,14
54404,Vips - Valdemarín Pozuelo,"Camino de la Zarzuela, 15, Madrid, 28023",28023,"Camino de la Zarzuela, 15, Madrid, 28023 28023 ",40.4644682,-3.7860363,19
57845,Dunkin' Coffee - República Dominicana,"Plaza de la Republica Dominicana, 7",28016,"Plaza de la Republica Dominicana, 7 28016 ",40.4582829,-3.6762759,18
65394,Moshi Moshi Sushi Bar,Calle Manuel de falla 48,28100,Calle Manuel de falla 48 28100 ,40.55202,-3.6431718,13
73990,Universo Kebab,"Travesía José Arcones Gil, 11",28017,"Travesía José Arcones Gil, 11 28017 ",40.4365476,-3.6389061,18
79783,Indian bombay,Calle bravo murillo 298,28020,Calle bravo murillo 298 28020 ,40.4623933,-3.6972176,13
81022,Ginos - Islazul,"C/ Calderilla, 1",28054,"C/ Calderilla, 1 28054 ",40.3637278,-3.7374791,11
89364,Wok 4 You - Arganzuela,"Plaza Beata María Ana de Jesús, 14",28045,"Plaza Beata María Ana de Jesús, 14 28045 ",40.39456,-3.69526,24
105209,Mama Bowl - Olavide,"Calle Raimundo Lulio, 2",28010,"Calle Raimundo Lulio, 2 28010 ",40.4324159,-3.7003489,15
115271,TGB CALLE VALENCIA 8 (LAVAPIES-MADRID),"Calle de Valencia, 8, 10",28012,"Calle de Valencia, 8, 10 28012 ",40.407825,-3.7007992,24
142069,TGB CC H2O (RIVAS-VACIAMADRID),Centro comercial H2O - Calle Marie Curie 4,28529,Centro comercial H2O - Calle Marie Curie 4 28529 ,40.3369914,-3.5262124,14
153555,Vips -Villalba (Planetocio),"Avenida Juan Carlos I, 46 - C.C.O. Planetocio",28400,"Avenida Juan Carlos I, 46 - C.C.O. Planetocio 28400 ",40.6372869,-4.0174807,14
166594,Arepa Olé - Usera,Calle Antonio López 150,28026,Calle Antonio López 150 28026 ,40.3901017,-3.7019607,18
177400,KM de Pizza - Heron Diversia,"Av. de Bruselas, 21",28108,"Av. de Bruselas, 21 28108 ",40.5300823,-3.6396724,18
180304,TGB C/ CUESTA DE LA VIRGEN 1 (MOSTOLES-MADRID),"Calle Cuesta de la Virgen, 1, Móstoles",28931,"Calle Cuesta de la Virgen, 1, Móstoles 28931 ",40.3229167,-3.8636255,23
180749,Papa John's Los Yebenes,C/ Los Yebenes 148,28047,C/ Los Yebenes 148 28047 ,40.3904179,-3.7517815,13
181336,Santita - Virgen de los Peligros,"Calle de la Virgen de los Peligros, 10",28013,"Calle de la Virgen de los Peligros, 10 28013 ",40.4188437,-3.6995481,12
182296,La Octava Isla - Madrid,"Calle de Velázquez, 117",28006,"Calle de Velázquez, 117 28006 ",40.4369983,-3.6835194,15
186429,Japon Toyama,"Paseo de Goya 24, Mostoles",28932,"Paseo de Goya 24, Mostoles 28932 ",40.3324936,-3.8634738,17
199044,Chino Palacio Oriente,"EMILIO FERRARI 12 Madrid, Spain,",28017,"EMILIO FERRARI 12 Madrid, Spain, 28017 ",40.4342946,-3.6438338,17
206935,Manolo Bakes - Pozuelo,"Av. de Europa, 9,",28224,"Av. de Europa, 9, 28224 ",40.4373423,-3.7960234,23
207128,Tim Hortons - Alcalá 232,"Calle Alcalá 232,",28027,"Calle Alcalá 232, 28027 ",40.4315692,-3.6577488,15
209239,La Tagliatella- Islazul,"Calle Calderilla, 1,,",28054,"Calle Calderilla, 1,, 28054 ",40.3637278,-3.7374791,16
209853,La Tagliatella - Orense,"Calle de Orense 11,",28020,"Calle de Orense 11, 28020 ",40.4483187,-3.69575,21
216710,El Gallo y El Toro,Av. de la Reina Victoria 32,28003,Av. de la Reina Victoria 32 28003 ,40.4471966,-3.710155,13
224958,Viena Capellanes - Palacio de Hielo,"C.C. PALACIO DEL HIELO, Calle de Silvano, 77,",28043,"C.C. PALACIO DEL HIELO, Calle de Silvano, 77, 28043 ",40.4631976,-3.6373448,16
227467,Foster's Hollywood - Getafe Campo de Fútbol,"Avenida Teresa de Calcuta S/N,",28903,"Avenida Teresa de Calcuta S/N, 28903 ",40.3243202,-3.7146721,16
230756,Arepa Olé Street - Ventas,"Calle Alcalá 343,",28027,"Calle Alcalá 343, 28027 ",40.4338427,-3.646938,19
231805,KFC MADRID PLZ DE LA BEATA (legazpi) - Activo,"C/ Guillermo de Osma, 2 (Plz. De la Beata María Ana de Jesús),",28045,"C/ Guillermo de Osma, 2 (Plz. De la Beata María Ana de Jesús), 28045 ",40.3942936,-3.6955076,18
242680,El Corte Inglés - (El Bercial),"Av. Comandante José Manuel Ripollés Corte Inglés,",28907,"Av. Comandante José Manuel Ripollés Corte Inglés, 28907 ",40.3297615,-3.728368,17
245399,McDonald's - Montecarmelo,Avenida de Montecarmelo 1,28049,Avenida de Montecarmelo 1 28049 ,40.50146,-3.6983,18
249490,McDonald's - Plaza Norte 2,"Centro Comercial Plaza Norte 2 | Nacinal I, Salida 19,",28703,"Centro Comercial Plaza Norte 2 | Nacinal I, Salida 19, 28703 ",40.5408496,-3.613513,22
252097,Vips - Fuenlabrada Av. de la Universidad,"Av. de la Universidad, 1",28942,"Av. de la Universidad, 1 28942 ",40.28493,-3.81622,14
253451,Restaurante Ni Hao - Calle Príncipe Carlos,"Calle Príncipe Carlos, 19,",28050,"Calle Príncipe Carlos, 19, 28050 ",40.493272,-3.6560963,18
254042,Taberna Gallega Garelos,Blanca de Navarra 6,28010,Blanca de Navarra 6 28010 ,40.4287463,-3.6930305,15
257754,Sushi Yakuza - Heron City Las Rozas,"Calle Camilo Jose Cela 2. Local 14,",28232,"Calle Camilo Jose Cela 2. Local 14, 28232 ",40.5162429,-3.8981726,10
261782,Stacksando - Lope de Vega,"Calle Lópe de Vega, 16,28014, Madrid",28014,"Calle Lópe de Vega, 16,28014, Madrid 28014 ",40.413677,-3.697799,28
6115,Steak Burger - Fuencarral,"Calle Fuencarral, 73",28004,"Calle Fuencarral, 73 28004 ",40.4248721,-3.7008404,12
6981,Thong,"Calle de López de Hoyos, 14",28006,"Calle de López de Hoyos, 14 28006 ",40.4370092,-3.6869192,18
16526,Luna Rossa,"c/ San Bernardo,24",28015,"c/ San Bernardo,24 28015 ",40.4232377,-3.7073657,14
30535,Bentley’s Burger - Pozuelo,"Vía de las Dos Castillas, 9",28224,"Vía de las Dos Castillas, 9 28224 ",40.432402,-3.802768,13
31067,Más que Pintxos - Pozuelo,"Calle Mónaco, 1",28224,"Calle Mónaco, 1 28224 ",40.4335839,-3.8003524,12
41297,Da Luca,Paseo de Alcobendas 10,28109,Paseo de Alcobendas 10 28109 ,40.52576,-3.62974,19
45333,Casa de Jin (reformas),"Calle Comercio, 5",28007,"Calle Comercio, 5 28007 ",40.4029738,-3.6814811,16
67524,Yoinyo Pizza,C/ Doctor Marañón esq c/ San Manuel,28220,C/ Doctor Marañón esq c/ San Manuel 28220 ,40.4736439,-3.876419,11
79457,Harold´s - Calle Libertad,Calle Libertad 13,28004,Calle Libertad 13 28004 ,40.4208672,-3.697648,20
110257,Dunkin' Coffee - Parque Sur,Av. de Gran Bretaña S/N,28916,Av. de Gran Bretaña S/N 28916 ,40.3407111,-3.7428726,16
134593,La Granja del Pollo Asado,"Calle de Maudes, 35",28003,"Calle de Maudes, 35 28003 ",40.445238,-3.698356,14
135724,Heladería Tozzi - Getafe,"Calle Madrid, 109, Getafe",28902,"Calle Madrid, 109, Getafe 28902 ",40.3119757,-3.7280451,10
168613,Empanadas Malvon - Retiro,"Calle de Narváez, 60",28009,"Calle de Narváez, 60 28009 ",40.4187647,-3.676403,9
169051,Antonella,"Calle Diego Ayllón, 16",28004,"Calle Diego Ayllón, 16 28004 ",40.4518061,-3.6500861,12
176545,Starbucks - Serrano 100,"Calle Serrano, 100",28006,"Calle Serrano, 100 28006 ",40.433651,-3.6862933,6
180313,Tony Roma's - Las Tablas,Avenida de Burgos 119,28050,Avenida de Burgos 119 28050 ,40.4967292,-3.666391,21
187210,PTH PASEO DE LA CASTELLANA 91 (MADRID),"Paseo de la Castellana 91,",28046,"Paseo de la Castellana 91, 28046 ",40.4505292,-3.6915988,12
188856,Burger King - Madrid - Paseo de la Esperanza,"Paseo de la Esperanza, 21,",28005,"Paseo de la Esperanza, 21, 28005 ",40.4010733,-3.7042927,17
193875,Llaollao - Xanadú,"Calle Puerto de Navacerrada, KM 23, 5,",28939,"Calle Puerto de Navacerrada, KM 23, 5, 28939 ",40.2996058,-3.9261572,11
199488,Plants (By Bowlers),"Calle de Victor Hugo 5, Madrid,",28004,"Calle de Victor Hugo 5, Madrid, 28004 ",40.4200727,-3.6981874,12
209823,La Tagliatella - Manoteras,"Avenida de Manoteras, 40,",28050,"Avenida de Manoteras, 40, 28050 ",40.4862986,-3.6660473,16
225386,Allo Pizza - Doctor Fleming,"C\ Doctor Fleming, 23 Madrid",28036,"C\ Doctor Fleming, 23 Madrid 28036 ",40.4598431,-3.6881559,18
227606,La Tagliatella - Boadilla,"Av. Infante Don Luis, 8 bis.,",28660,"Av. Infante Don Luis, 8 bis., 28660 ",40.4086819,-3.8954843,22
233034,Empanadas Malvón - Majadahonda,"Calle Moreras, 42,",28220,"Calle Moreras, 42, 28220 ",40.4587535,-3.8614004,18
246084,McDonald's - Fuenlabrada,Leganés 55 Fuenlabrada,28945,Leganés 55 Fuenlabrada 28945 ,40.293874,-3.7907814,17
247132,La Bientirada Vergara,"Calle del Príncipe de Vergara, 252,",28015,"Calle del Príncipe de Vergara, 252, 28015 ",40.4554294,-3.6768492,14
249095,Foster´s Hollywood - Mostoles,"Calle Cámara de la Industria, 2,",28938,"Calle Cámara de la Industria, 2, 28938 ",40.3154,-3.8709746,12
252212,McDonald's - Rivas Futura,"Juan de la Cierva,2,",28529,"Juan de la Cierva,2, 28529 ",40.3373908,-3.5313086,13
252702,El Ingrediente,"Calle de Alenza, 5,",28003,"Calle de Alenza, 5, 28003 ",40.4434617,-3.7008191,10
262544,Street Burrito - Editions ATR,"Andrés de Torrejón 17,",28014,"Andrés de Torrejón 17, 28014 ",40.4078707,-3.6825089,25
263022,Las Muns Parque Sur,"Av. de Gran Bretaña, S / N,,28916",28916,"Av. de Gran Bretaña, S / N,,28916 28916 ",40.3407111,-3.7428726,14
19426,Ginos - Bustamante,"Calle de Bustamante, 26",28045,"Calle de Bustamante, 26 28045 ",40.4004101,-3.6873525,14
23964,Vips - Paseo de la Habana,"Paseo de la Habana, 17",28036,"Paseo de la Habana, 17 28036 ",40.4501832,-3.6878685,14
23984,Vips - Génova,"Calle Génova, 27",28004,"Calle Génova, 27 28004 ",40.4260761,-3.692,10
23987,Vips - Alcalá 200,Calle Alcalá 200,28028,Calle Alcalá 200 28028 ,40.430247,-3.6638761,11
23988,Vips - Castellana 280,Paseo de la Castellana 280,28046,Paseo de la Castellana 280 28046 ,40.4763025,-3.6856988,15
30741,Mistura - Goya,"Calle de Goya, 50",28001,"Calle de Goya, 50 28001 ",40.4247756,-3.6784797,9
37250,Goiko Grill - Calle de Núñez de Balboa,"Calle de Núñez de Balboa, 12, 28001 Madrid",28001,"Calle de Núñez de Balboa, 12, 28001 Madrid 28001 ",40.4230343,-3.6826476,21
37359,KIP,Calle Carranza 4,28004,Calle Carranza 4 28004 ,40.4294325,-3.7031354,16
42192,Kyoto - Cocina Asiática,"Calle Camilo Jose Cela, 1",28232,"Calle Camilo Jose Cela, 1 28232 ",40.51973,-3.89885,14
48691,Sky sushi,Calle Recoletos 11,28001,Calle Recoletos 11 28001 ,40.4219505,-3.690109,9
50145,Zenith,"Av. de Europa, 26",28224,"Av. de Europa, 26 28224 ",40.4347357,-3.8027336,14
52556,Ginos - Lucca,"Calle Ortega y Gaset, 29",28006,"Calle Ortega y Gaset, 29 28006 ",40.4306155,-3.6830042,19
60214,José Luis,"Av. de la Industria, 35",28108,"Av. de la Industria, 35 28108 ",40.5339072,-3.6517889,15
64150,Tony Roma's - Gran Vía,GRAN VIA 68,28013,GRAN VIA 68 28013 ,40.4226391,-3.7092923,27
64229,Royal Thai Cuzco,"Avenida de Brasil 30, 28020, Madrid",28020,"Avenida de Brasil 30, 28020, Madrid 28020 ",40.4578294,-3.6932264,16
65574,Taste of India - Madrid,Calle Núñez de Arce 15,28012,Calle Núñez de Arce 15 28012 ,40.4151117,-3.7010965,16
69362,Siamo la pizza,Calle Gandhi 71,28017,Calle Gandhi 71 28017 ,40.4259264,-3.6306662,10
70902,Ala Sushi - Avda. Brasil,Avenida de Brasil 17,28020,Avenida de Brasil 17 28020 ,40.4570185,-3.6937439,14
70994,Vips Smart - Calle Alcalá 336,Calle Alcalá 336,28027,Calle Alcalá 336 28027 ,40.4340643,-3.6458428,13
74377,La Sanducherie - Sta. Teresa,C/ SANTA TERESA 1,28004,C/ SANTA TERESA 1 28004 ,40.4262681,-3.6963123,16
86840,Bresca - Lavapiés,de los tres peces 20,28012,de los tres peces 20 28012 ,40.410681,-3.6995824,14
87695,Istanbul - Manuel Becerra,Plaza de Manuel Becerra nº 20,28028,Plaza de Manuel Becerra nº 20 28028 ,40.4275617,-3.6692932,14
97319,TGB CC LORANCA (FUENLABRADA - MADRID),Av Pablo Iglesias 17. CC Plaza Loranca 2. Local 121-122,28942,Av Pablo Iglesias 17. CC Plaza Loranca 2. Local 121-122 28942 ,40.3032474,-3.8317451,12
98289,Con Sazon - Carabanchel,Calle Fátima 2,28917,Calle Fátima 2 28917 ,40.36118,-3.78073,13
102616,Manolo Bakes - Alcobendas,"Carrefour, local 60",28108,"Carrefour, local 60 28108 ",41.1070556,-73.8018259,11
127721,Pollos y Pucheros,"Calle Segovia, 3, Alcorcón",28922,"Calle Segovia, 3, Alcorcón 28922 ",40.3443582,-3.8285732,11
134743,Nanbei Restaurante,"Calle Donoso Cortés, 6",28015,"Calle Donoso Cortés, 6 28015 ",40.436152,-3.7050919,12
137088,Vips Smart - Sambil,"Mondragón, s/n Local 215 Y 216 CC SAMBIL Leganés",28917,"Mondragón, s/n Local 215 Y 216 CC SAMBIL Leganés 28917 ",40.3594243,-3.7766788,13
144023,Marchando Cocina,"Calle Jaén, 3 - Móstoles",28935,"Calle Jaén, 3 - Móstoles 28935 ",40.3271724,-3.8761892,12
156772,T4 Bubble Tea (T4 Restaurante),"Calle del 7 de Julio, 5",28012,"Calle del 7 de Julio, 5 28012 ",40.415908,-3.7078798,16
162425,Starbucks - Princesa 40,"Calle de la Princesa, 40",28008,"Calle de la Princesa, 40 28008 ",40.4293753,-3.7150378,21
162456,Starbucks - Plenilunio,"Calle Aracne s/n, CC Plenilunio",28002,"Calle Aracne s/n, CC Plenilunio 28002 ",40.446969,-3.587343,14
169418,Casa Sushi - Zona 15,"Calle Padilla, 58",28006,"Calle Padilla, 58 28006 ",40.4310594,-3.6771598,16
180736,Papa John's Las Rozas,"Avenida Constitución, 2",28231,"Avenida Constitución, 2 28231 ",40.4927426,-3.8749362,8
180740,Papa John's Aurora Boreal,"Calle Minerva, 12",28032,"Calle Minerva, 12 28032 ",40.3994744,-3.6024248,10
186422,Pizzeria Victoria,"Av. de la Unión Europea, 56,",28939,"Av. de la Unión Europea, 56, 28939 ",40.2837783,-3.9175743,10
189721,BD Authentic Kebab - Meson Paredes,"Calle del Mesón de Paredes, 49",28012,"Calle del Mesón de Paredes, 49 28012 ",40.4090216,-3.7034849,12
191359,Perla del Pacífico - Ascao,"Calle Berastegui, 24,",28017,"Calle Berastegui, 24, 28017 ",40.4289162,-3.6420644,15
199922,Burger King - Majadahonda - Mariano Alcaraz,"Calle del Dr. Mariano Alcaraz, s/n,",28222,"Calle del Dr. Mariano Alcaraz, s/n, 28222 ",40.4585946,-3.8676256,11
210199,L`Incontro Trattoria,"Av. Cantabria, 39,",28042,"Av. Cantabria, 39, 28042 ",40.4577088,-3.5857381,12
220076,Manolo Bakes - Loranca,"Centro Comercial Loranca 2, Avenida Pablo Iglesias 17",28100,"Centro Comercial Loranca 2, Avenida Pablo Iglesias 17 28100 ",40.3032474,-3.8317451,27
224634,Pizza Hut - Coslada,calle venezuela s/n manzana 7,28823,calle venezuela s/n manzana 7 28823 ,40.4280353,-3.5401373,9
228429,A Burgers Veggie Kitchen by Taster - Editions SOR,"Calle Sorgo, 17,",28039,"Calle Sorgo, 17, 28039 ",40.4663771,-3.7068448,16
232967,"Pasiones Argentinas, Empanadas y carnes a la parrilla (Boadilla)","Av. Infante Don Luis 4, Boadilla del Monte, 28669,",28669,"Av. Infante Don Luis 4, Boadilla del Monte, 28669, 28669 ",40.4101469,-3.8946358,12
241278,Foster's Hollywood -Ronda de Valencia,"Ronda de Valencia, 7,",28012,"Ronda de Valencia, 7, 28012 ",40.4051879,-3.7011956,16
244584,Salvatore - Calle de Victor Hugo,"Calle de Victor Hugo 5,Madrid",28004,"Calle de Victor Hugo 5,Madrid 28004 ",40.4200727,-3.6981874,9
249854,Foster´s Hollywood - Auditorio,"plaza Sagrado Corazón de Jesus, 2,",28002,"plaza Sagrado Corazón de Jesus, 2, 28002 ",40.445225,-3.6772588,11
250866,El Corte Inglés - ECG Castellana,"Centro Comercial Castellana, Calle de Raimundo Fernández Villaverde, 79,Centro Comercial Castellana",28003,"Centro Comercial Castellana, Calle de Raimundo Fernández Villaverde, 79,Centro Comercial Castellana 28003 ",40.4466622,-3.6942858,13
253804,GUILTY – Cookie Shop - Pozuelo,"Calle Finlandia, 6,",28224,"Calle Finlandia, 6, 28224 ",40.4356955,-3.7965507,13
257770,Pizza Hut - Islazul,"Calle Calderilla, 1,Centro Comercial Islazul local 145",28054,"Calle Calderilla, 1,Centro Comercial Islazul local 145 28054 ",40.3633759,-3.7389515,17
265342,La Desayunería - Calle Barbieri,"Calle Barbieri 4,28004",28004,"Calle Barbieri 4,28004 28004 ",40.4206695,-3.6982297,21
13593,Forneria Ballaro,"Calle de Sta Engracia, 90",28010,"Calle de Sta Engracia, 90 28010 ",40.4378092,-3.6997916,15
22584,Fridays - Vaguada,"Avda. Monforte de Lemos,36",28029,"Avda. Monforte de Lemos,36 28029 ",40.4798322,-3.707023,14
23924,Ginos - Monforte de Lemos,"Avda. Monforte de Lemos, 193",28035,"Avda. Monforte de Lemos, 193 28035 ",40.475718,-3.720147,9
23965,Vips - Calle Orense,"Calle Orense, 79",28020,"Calle Orense, 79 28020 ",40.4596586,-3.6944521,18
30186,Arepa Olé - Tablas,"Calle de Valcarlos, 35",28050,"Calle de Valcarlos, 35 28050 ",40.5032835,-3.6675922,13
31779,Ginos - Zielo,"Av. de Europa, 26",28224,"Av. de Europa, 26 28224 ",40.4347357,-3.8027336,19
38796,Pizza Jardín - Pensamiento,"Calle Pensamiento, 16",28020,"Calle Pensamiento, 16 28020 ",40.4592306,-3.6974671,12
39630,Pizza Jardín - Majadahonda,"Av. de España, 78",28220,"Av. de España, 78 28220 ",40.4622845,-3.8665853,18
40210,Ginos - CC Arco,"Matemáticos, s/n",28222,"Matemáticos, s/n 28222 ",40.4884574,-3.8978334,12
45081,Bambú Garden,"Calle de Mesena, 31",28033,"Calle de Mesena, 31 28033 ",40.4637279,-3.6626012,12
48113,Kun Fu - Bravo Murillo,"Calle de Bravo Murillo, 283",28020,"Calle de Bravo Murillo, 283 28020 ",40.4604731,-3.6989313,16
48948,TGB CC PARQUE ALEGRA (SAN SEBASTIAN DE LOS REYES - MADRID),"Calle Salvador de Madariaga, s/n",28702,"Calle Salvador de Madariaga, s/n 28702 ",40.5671987,-3.6090986,12
53597,KM de Pizza - Las Tablas,"Calle de Palas de Rey, 14",28050,"Calle de Palas de Rey, 14 28050 ",40.5079552,-3.6679964,11
56470,Vips - Bravo Murillo,Calle Bravo Murillo 109,28015,Calle Bravo Murillo 109 28015 ,40.4482033,-3.7041489,17
66265,Taco Bell - Gran Vía,"Gran Vía, 64",28013,"Gran Vía, 64 28013 ",40.4222643,-3.7086683,19
68655,Bentley’s Burger - Castellana,"Paseo de la castellana, 132",28046,"Paseo de la castellana, 132 28046 ",40.4505732,-3.6902007,12
69494,Sushi Artist - Plenilunio,Calle Aracne 3,28022,Calle Aracne 3 28022 ,40.4469408,-3.5875084,9
72689,Ginos - Parquesur,Avenida de Gran Bretaña 1,28916,Avenida de Gran Bretaña 1 28916 ,40.33946,-3.73349,21
79665,Go Taco!,Batalla de Lepanto 18,28912,Batalla de Lepanto 18 28912 ,40.3333983,-3.7640226,13
91596,TGB KINEPOLIS CIUDAD DE LA IMAGEN (MADRID),Calle Edgar Neville 2,28223,Calle Edgar Neville 2 28223 ,40.3958766,-3.7995738,25
98631,TÖTO ICE CREAM & COFFEE,"Corredera alta de San Pablo, 12",28004,"Corredera alta de San Pablo, 12 28004 ",40.4251812,-3.7018973,8
107463,TGB CC PLAZA NORTE 2 (SAN SEBASTIAN DE LOS REYES - MADRID),"Plaza del Comercio, 11",28703,"Plaza del Comercio, 11 28703 ",40.542437,-3.6151317,21
114700,Bengal Kebab,Calle Santa Susana 27,28033,Calle Santa Susana 27 28033 ,40.477192,-3.6462847,9
127252,Vamos al Indio,Calle Almansa 89,28040,Calle Almansa 89 28040 ,40.4492716,-3.7120833,10
145920,Gecko Poké (Rafael Ceballos) (Food & Drinks market 5.0),Calle Rafael Ceballos 1,28029,Calle Rafael Ceballos 1 28029 ,40.4672526,-3.6938038,14
159649,Empanadas Malvón Chamberí (Empanadas Malvón (Abascal)),"Calle de José Abascal, 23, Madrid, Spain",28003,"Calle de José Abascal, 23, Madrid, Spain 28003 ",40.4385894,-3.6995325,14
162467,Starbucks - La Vaguada,"Avenida de Monforte de Lemos, 36, CC La vaguada",28029,"Avenida de Monforte de Lemos, 36, CC La vaguada 28029 ",40.4800101,-3.7074566,16
167843,Foster's Hollywood - Bravo Murillo,Calle Bravo Murillo 97,28003,Calle Bravo Murillo 97 28003 ,40.4464306,-3.7042876,10
180711,Papa John's - Majadahonda,"Calle Gran Vía, 14, 28220 Majadahonda, Madrid",28220,"Calle Gran Vía, 14, 28220 Majadahonda, Madrid 28220 ",40.4726391,-3.8719025,15
180764,Papa John's Cerro Minguete,C/Cerro Minguete 16,28035,C/Cerro Minguete 16 28035 ,40.4869652,-3.7198799,8
184786,HATTORI HANZÔ Originals,"Calle de Mesonero Romanos, 17",28004,"Calle de Mesonero Romanos, 17 28004 ",40.4209187,-3.7041291,7
187741,Pans & Company - PC Gran Vía,"gran via, 30,",28013,"gran via, 30, 28013 ",40.4202362,-3.70246,17
201237,Burger King - Madrid - Serrano 217,"Calle de Serrano, 217,",28002,"Calle de Serrano, 217, 28002 ",40.4544415,-3.6784687,9
203493,Vips - Paseo Arroyomolinos,"Paseo de Arroyomolinos, 33,",28938,"Paseo de Arroyomolinos, 33, 28938 ",40.3148213,-3.8716549,15
204854,La Tagliatella - Kinépolis,"Ciudad del Cine C.C. Kinepolis,",28223,"Ciudad del Cine C.C. Kinepolis, 28223 ",40.3938714,-3.7964406,13
206000,Kebap Jan,"Avenida Príncipe de Asturias, 57,",28670,"Avenida Príncipe de Asturias, 57, 28670 ",40.3538711,-3.8999367,10
206829,Chi Zhi Ju,"capitan haya 55,",28020,"capitan haya 55, 28020 ",40.464073,-3.6923017,9
206889,Flax & Kale Street,"Paseo de la Castellana, 89",28046,"Paseo de la Castellana, 89 28046 ",40.4499767,-3.6916087,12
215162,Mister O1 - Ponzano,"Calle de Ponzano, 93,",28003,"Calle de Ponzano, 93, 28003 ",40.4454386,-3.6988708,17
223527,Ricos Tacos - Canillejas,"Alcalá 608,",28022,"Alcalá 608, 28022 ",40.4473465,-3.6107699,15
224974,KFC COLMENAR CC VENTANAL SIERRA - Activo,"Avd. Tejera, 2,",28770,"Avd. Tejera, 2, 28770 ",40.6592075,-3.7548766,15
230468,McDonald's - Esparteros,"Calle de Esparteros, 1,",28012,"Calle de Esparteros, 1, 28012 ",40.4163611,-3.7049219,13
242714,El Corte Inglés - (Serrano),"CALLE SERRANO, 47,",28801,"CALLE SERRANO, 47, 28801 ",40.4301514,-3.687601,9
251652,TGB CC HERON CITY (LAS ROZAS-MADRID),"Calle Camilo Jose Cela, 2,",28232,"Calle Camilo Jose Cela, 2, 28232 ",40.51517,-3.89765,20
251777,Ayala Japón,"Calle de Ayala, 67,,28001 madrid",28001,"Calle de Ayala, 67,,28001 madrid 28001 ",40.4275256,-3.6765164,11
256136,El Kiosko - El Cantizal,C/ KALAMOS Nº 19,28232,C/ KALAMOS Nº 19 28232 ,40.519516,-3.9267673,10
262817,La Cocina de Carrefour - Majadahonda,"Pol. Ind. el Carralero, Calle Moreras, 2, II, Parcela, 37,",28220,"Pol. Ind. el Carralero, Calle Moreras, 2, II, Parcela, 37, 28220 ",40.4523876,-3.8683221,7
266635,Llaollao - Madrid Albufera,"Av. de la Albufera, 44,",28038,"Av. de la Albufera, 44, 28038 ",40.3965079,-3.6660084,12
15677,La Mordida - Retiro,"Calle de Pío Baroja, 9",28009,"Calle de Pío Baroja, 9 28009 ",40.4138191,-3.6739138,19
22590,VIPS Smart - Manoteras,"Av Manoteras, 40",28050,"Av Manoteras, 40 28050 ",40.4862986,-3.6660473,10
23903,Ginos - Arturo Soria,"Arturo Soria, 126",28043,"Arturo Soria, 126 28043 ",40.4499968,-3.6507593,9
29295,Palacio Imperial,"Calle de Alcalá, 251",28027,"Calle de Alcalá, 251 28027 ",40.4318182,-3.659491,20
31556,Mizuki,"C/ Ercilla, 11",28005,"C/ Ercilla, 11 28005 ",40.4035016,-3.7032466,15
36005,Los Guacamoles,Calle de Jacinto Benavente 21,28100,Calle de Jacinto Benavente 21 28100 ,40.5449804,-3.6471089,15
45071,Aomi,"Calle Antonio Zamora 12, Madrid",28011,"Calle Antonio Zamora 12, Madrid 28011 ",40.4134229,-3.7262282,11
49106,Estilo Sushi,"Calle Cidamón, 2",28043,"Calle Cidamón, 2 28043 ",40.4502923,-3.657769,11
67083,Fuego y Sabor,Emigrantes 13,28043,Emigrantes 13 28043 ,40.4677052,-3.6379683,9
80517,Universo Kebab - Embajadores,Calle Embajadores 130,28045,Calle Embajadores 130 28045 ,40.3989649,-3.6983242,11
85362,Trattoria Casella,Calle de la Begonia 135,28109,Calle de la Begonia 135 28109 ,40.5221881,-3.6446216,14
94429,Tommy Mel's - La Vaguada,Avenida Monforte de Lemos 36,28029,Avenida Monforte de Lemos 36 28029 ,40.4798322,-3.707023,15
96199,TGB CALLE SAN BERNARDO 105 (MADRID),Calle San Bernardo 105,28015,Calle San Bernardo 105 28015 ,40.4316778,-3.7057941,15
102589,Ginos - Méndez Álvaro - NEW,Calle Méndez Álvaro 72,28045,Calle Méndez Álvaro 72 28045 ,40.394249,-3.6800324,9
103242,Bilawal Donner Kebab - Las Rozas,Calle Pocito de las Nieves 3,28231,Calle Pocito de las Nieves 3 28231 ,40.4933385,-3.8703911,8
103260,Ginos - Castellana 278 - NEW,"Paseo de la Castellana, 278",28046,"Paseo de la Castellana, 278 28046 ",40.4754078,-3.6861068,7
107635,Restaurante Guang Zhou,Calle de Guareña 10,28044,Calle de Guareña 10 28044 ,40.3879299,-3.7660263,12
109520,Gran Nemrut - Oporto,"Av. de Oporto, 89",28019,"Av. de Oporto, 89 28019 ",40.3878117,-3.7315642,6
113060,El Empanadazo,Calle de Dulcinea 39,28020,Calle de Dulcinea 39 28020 ,40.449717,-3.6999567,8
116687,Bubba - Calle Libertad,Calle Libertad 13,28004,Calle Libertad 13 28004 ,40.4208672,-3.697648,10
122566,KM de Pizza - Heron City,"Calle Camilo Jose Cela, 2",28232,"Calle Camilo Jose Cela, 2 28232 ",40.51517,-3.89765,11
130191,Empanadas Malvon - Paseo de la Habana,Paseo de la Habana 52,28036,Paseo de la Habana 52 28036 ,40.4507832,-3.6867071,12
130981,LaMucca - Serrano,Calle Serrano 91,28006,Calle Serrano 91 28006 ,40.4371168,-3.6866697,15
146830,Ben & Jerry’s – Magnum Store - Editions ATR,Andrés de Torrejón 19,28014,Andrés de Torrejón 19 28014 ,40.4080457,-3.6824915,16
152920,Fridays - Paseo de la Habana,"Paseo de la Habana, 17",28036,"Paseo de la Habana, 17 28036 ",40.4501832,-3.6878685,16
156634,Foster's Hollywood - Tres Cantos,"Av. de los Labradores, 9",28760,"Av. de los Labradores, 9 28760 ",40.5995715,-3.7094017,10
176271,Starbucks - Factory,"Calle Salvador de Madariaga, 2",28702,"Calle Salvador de Madariaga, 2 28702 ",40.5682776,-3.6106005,7
176287,Starbucks - Moraleja Green,"Avenida de Europa, 13",28108,"Avenida de Europa, 13 28108 ",40.5176143,-3.6572364,13
180768,Papa John's Isabel Colbrand,"Isabel Colbrand, 20",28050,"Isabel Colbrand, 20 28050 ",40.5103318,-3.678708,9
185158,Sushi Express - Camino de Ganapanes,"Calle Camino de Ganapanes, 1",28035,"Calle Camino de Ganapanes, 1 28035 ",40.4703278,-3.7145185,8
185328,TGB CC XANADU (ARROYOMOLINOS-MADRID),"Calle Puerto de Navacerrada, km 23, 5",28939,"Calle Puerto de Navacerrada, km 23, 5 28939 ",40.2996058,-3.9261572,14
190361,Plantarse,Calle Francisco de Rojas 7,28010,Calle Francisco de Rojas 7 28010 ,40.4296127,-3.6998994,16
199825,Burger King - Madrid - Gran vía 69,"Calle Gran Vía, 69,",28013,"Calle Gran Vía, 69, 28013 ",40.4228257,-3.7105877,10
199955,Burger King - Madrid - Fermín Caballero,"Calle de Fermín Caballero, 75,",28034,"Calle de Fermín Caballero, 75, 28034 ",40.481435,-3.7145483,10
199969,Burger King - Madrid - Camino de la Zarzuela,"Camino de la Zarzuela, 1,",28023,"Camino de la Zarzuela, 1, 28023 ",40.4628329,-3.7848377,8
201198,Burger King - Madrid - Gral Martinez Campos 17,"Paseo del General Martínez Campos, 17,",28010,"Paseo del General Martínez Campos, 17, 28010 ",40.4354098,-3.6959634,13
224876,KFC TORREJON AVD CONSTITUCION 110 - Activo,"Avd Constitución, 110,",28850,"Avd Constitución, 110, 28850 ",40.4584649,-3.4657389,11
230526,La Tagliatella - C.C. Tres Aguas,"Av. América, 7-9,",28922,"Av. América, 7-9, 28922 ",40.3584463,-3.8313617,18
236514,El Fogón,"Calle Hermanos de Pablo, 1,",28027,"Calle Hermanos de Pablo, 1, 28027 ",40.4352178,-3.6445517,10
242602,Araldo - Calle Los Madrazos,"Calle de los Madrazo, 5,",28014,"Calle de los Madrazo, 5, 28014 ",40.4176126,-3.6981038,10
248969,El Corte Inglés - ECG Sanchinarro,"Calle Margarita de Parma, 1,",28050,"Calle Margarita de Parma, 1, 28050 ",40.4977309,-3.6611356,11
248977,El Corte Inglés - ECG Pozuelo,"Camino del Cerro de los Gamos,",28224,"Camino del Cerro de los Gamos, 28224 ",40.4629945,-3.809484,10
249663,La Bientirada Quevedo,"Glorieta de Quevedo, 6,",28015,"Glorieta de Quevedo, 6, 28015 ",40.4340185,-3.7046841,14
261601,TGB - C.C. Parquesur (Leganés - Madrid),"Av. de Gran Bretaña, S / N,",28916,"Av. de Gran Bretaña, S / N, 28916 ",40.3407111,-3.7428726,15
269467,The Good Burger - TGB Polígono de las Mercedes,"C/ SAMANIEGO 7, LOCAL 7,,",28022,"C/ SAMANIEGO 7, LOCAL 7,, 28022 ",37.0341181,-95.6426791,21
8623,Viva Burger,"Costanilla de San Andrés, 16",28005,"Costanilla de San Andrés, 16 28005 ",40.4124957,-3.7118472,10
11553,La Misión,"Calle José Silva, 22",28043,"Calle José Silva, 22 28043 ",40.4545619,-3.6594028,15
13341,El Gallego,Calle de San Modesto 44,28034,Calle de San Modesto 44 28034 ,40.485817,-3.6925456,10
23758,Il Boccone,"Calle de Juan de Mariana, 4",28045,"Calle de Juan de Mariana, 4 28045 ",40.3989482,-3.6869394,14
23942,Ginos - Diversia,"Avenida de Bruselas, 21",28100,"Avenida de Bruselas, 21 28100 ",40.5312006,-3.6372851,11
23967,Vips - Azca,"Calle Orense, 16",28020,"Calle Orense, 16 28020 ",40.4498337,-3.6947744,7
23971,Vips - Padre Damian,"Calle Padre Damian, 38",28036,"Calle Padre Damian, 38 28036 ",40.4582487,-3.6853261,9
23986,Vips - Gorbea,"Avenida de Burgos, 119",28050,"Avenida de Burgos, 119 28050 ",40.4967292,-3.666391,9
23989,Vips - Condesa de Venadito,Calle Condesa de Venadito,28027,Calle Condesa de Venadito 28027 ,40.4448056,-3.6531881,8
24728,Vips - Vaguada,Avenida Monforte de Lemos 36,28029,Avenida Monforte de Lemos 36 28029 ,40.4798322,-3.707023,9
31069,Vips - La Finca,"Paseo Club Deportivo, 3,",28223,"Paseo Club Deportivo, 3, 28223 ",40.4213352,-3.8048364,11
31283,Vips - Ática,"Vía de las Dos Castillas, 33",28224,"Vía de las Dos Castillas, 33 28224 ",40.4405519,-3.7863566,11
35996,Churrería La Mejor,"Calle Divino Pastor, 3",28004,"Calle Divino Pastor, 3 28004 ",40.4272414,-3.7020037,17
38798,Pizza Jardín - Spinola,"Calle de Cardenal Marcelo Spínola, 8",28016,"Calle de Cardenal Marcelo Spínola, 8 28016 ",40.4669577,-3.6698342,18
41745,Crepes&Waffles Lunch - Heron City,"Calle Camilo Jose Cela, 2",28232,"Calle Camilo Jose Cela, 2 28232 ",40.51517,-3.89765,14
42596,Casa Mestiza by Antojos Araguaney (La Despensa - San Antón),"C/ Augusto Figueroa, 24",28004,"C/ Augusto Figueroa, 24 28004 ",40.4220473,-3.6975538,14
44354,Pizzería Argentina El Trébol,"Calle Núñez de Arce, 11",28012,"Calle Núñez de Arce, 11 28012 ",40.4152775,-3.7012589,11
44856,Kagura Express,"Calle de Augusto Figueroa, 24",28004,"Calle de Augusto Figueroa, 24 28004 ",40.4220473,-3.6975538,9
45087,Amorino - Mayor,"Calle Mayor, 40",28013,"Calle Mayor, 40 28013 ",40.4160941,-3.7084435,10
46399,Sugi Sushi,"Av. de la Emperatriz Isabel, 3",28019,"Av. de la Emperatriz Isabel, 3 28019 ",40.3980099,-3.7173514,8
46829,Pans & Company - Tres Aguas,"Av. de América, 7-9",28922,"Av. de América, 7-9 28922 ",40.3584463,-3.8313617,13
52139,TGB CC GRAN PLAZA 2 (MAJADAHONDA - MADRID),"Calle de los Químicos, 2",28220,"Calle de los Químicos, 2 28220 ",40.4886967,-3.8972119,11
59446,Pinsa Pizza - Madrid,"Calle Santiago de Compostela, 36",28034,"Calle Santiago de Compostela, 36 28034 ",40.4833809,-3.70228,10
63625,Llaollao - Heron City,Calle CAMILO JOSE CELA 2,28232,Calle CAMILO JOSE CELA 2 28232 ,40.51517,-3.89765,11
65649,María Canela - Chamberí,Cardenal Cisneros 37,28010,Cardenal Cisneros 37 28010 ,40.4316368,-3.7021813,10
66571,Ginos - Parque Norte,Calle de Serrano Galvache 56,28033,Calle de Serrano Galvache 56 28033 ,40.4760128,-3.6723064,9
69495,Pure Cuisine Plenilunio,"CALLE ARACNE, 3, C.C. PLENILUNIO, LOCAL 221",28022,"CALLE ARACNE, 3, C.C. PLENILUNIO, LOCAL 221 28022 ",40.446969,-3.587343,15
75566,China Ling,Avenida Betanzos 4,28029,Avenida Betanzos 4 28029 ,40.4723992,-3.7119768,7
80264,Il Siciliano - La Latina,Calle Toledo 70,28005,Calle Toledo 70 28005 ,40.4096217,-3.7098973,13
80579,Il Siciliano - Bernabéu (rejected),"Calle Edgar Neville, 39",28020,"Calle Edgar Neville, 39 28020 ",40.4521082,-3.6967543,14
80829,Lazzaroni,Calle Veneros 8,28221,Calle Veneros 8 28221 ,40.4689618,-3.8532447,9
